,Period,Passenger_type,Direction,name,Origin,Destination,Count,country,latitude,longitude,countryID
0,201501,Overseas visitor,Arrival,Afghanistan,Afghanistan,New Zealand,16,AF,33.93911,67.709953,3
1,201501,Overseas visitor,Arrival,Andorra,Andorra,New Zealand,16,AD,42.546245,1.601554,1
2,201501,Overseas visitor,Arrival,Antarctica,Antarctica,New Zealand,32,AQ,-75.250973,-0.071389,10
3,201501,Overseas visitor,Arrival,Argentina,Argentina,New Zealand,560,AR,-38.416097,-63.616672,11
4,201501,Overseas visitor,Arrival,Australia,Australia,New Zealand,119344,AU,-25.274398,133.775136,14
5,201501,Overseas visitor,Arrival,Austria,Austria,New Zealand,1104,AT,47.516231,14.550072,13
6,201501,Overseas visitor,Arrival,Azerbaijan,Azerbaijan,New Zealand,16,AZ,40.143105,47.576927,16
7,201501,Overseas visitor,Arrival,Bahrain,Bahrain,New Zealand,32,BH,25.930414,50.637772,23
8,201501,Overseas visitor,Arrival,Bangladesh,Bangladesh,New Zealand,32,BD,23.684994,90.356331,19
9,201501,Overseas visitor,Arrival,Belarus,Belarus,New Zealand,32,BY,53.709807,27.953389,34
10,201501,Overseas visitor,Arrival,Belgium,Belgium,New Zealand,768,BE,50.503887,4.469936,20
11,201501,Overseas visitor,Arrival,Bermuda,Bermuda,New Zealand,16,BM,32.321384,-64.75737,26
12,201501,Overseas visitor,Arrival,Bolivia,Bolivia,New Zealand,16,BO,-16.290154,-63.588653,28
13,201501,Overseas visitor,Arrival,Botswana,Botswana,New Zealand,16,BW,-22.328474,24.684866,33
14,201501,Overseas visitor,Arrival,Brazil,Brazil,New Zealand,1856,BR,-14.235004,-51.92528,29
15,201501,Overseas visitor,Arrival,Brunei Darussalam,Brunei Darussalam,New Zealand,64,BN,4.535277,114.727669,27
16,201501,Overseas visitor,Arrival,Bulgaria,Bulgaria,New Zealand,80,BG,42.733883,25.48583,22
17,201501,Overseas visitor,Arrival,Cambodia,Cambodia,New Zealand,48,KH,12.565679,104.990963,115
18,201501,Overseas visitor,Arrival,Canada,Canada,New Zealand,6496,CA,56.130366,-106.346771,36
19,201501,Overseas visitor,Arrival,Chile,Chile,New Zealand,624,CL,-35.675147,-71.542969,44
20,201501,Overseas visitor,Arrival,China,China,New Zealand,25680,CN,35.86166,104.195397,46
21,201501,Overseas visitor,Arrival,Colombia,Colombia,New Zealand,208,CO,4.570868,-74.297333,47
22,201501,Overseas visitor,Arrival,Cook Islands,Cook Islands,New Zealand,864,CK,-21.236736,-159.777671,43
23,201501,Overseas visitor,Arrival,Costa Rica,Costa Rica,New Zealand,32,CR,9.748917,-83.753428,48
24,201501,Overseas visitor,Arrival,Croatia,Croatia,New Zealand,64,HR,45.1,15.2,96
25,201501,Overseas visitor,Arrival,Cyprus,Cyprus,New Zealand,48,CY,35.126413,33.429859,52
26,201501,Overseas visitor,Arrival,Czech Republic,Czech Republic,New Zealand,576,CZ,49.817492,15.472962,53
27,201501,Overseas visitor,Arrival,Denmark,Denmark,New Zealand,2208,DK,56.26392,9.501785,56
28,201501,Overseas visitor,Arrival,Ecuador,Ecuador,New Zealand,48,EC,-1.831239,-78.183406,60
29,201501,Overseas visitor,Arrival,Egypt,Egypt,New Zealand,32,EG,26.820553,30.802498,62
30,201501,Overseas visitor,Arrival,Estonia,Estonia,New Zealand,64,EE,58.595272,25.013607,61
31,201501,Overseas visitor,Arrival,Fiji,Fiji,New Zealand,1760,FJ,-16.578193,179.414413,68
32,201501,Overseas visitor,Arrival,Finland,Finland,New Zealand,768,FI,61.92411,25.748151,67
33,201501,Overseas visitor,Arrival,France,France,New Zealand,4112,FR,46.227638,2.213749,72
34,201501,Overseas visitor,Arrival,French Polynesia,French Polynesia,New Zealand,1392,PF,-17.679742,-149.406843,172
35,201501,Overseas visitor,Arrival,Germany,Germany,New Zealand,11392,DE,51.165691,10.451526,54
36,201501,Overseas visitor,Arrival,Gibraltar,Gibraltar,New Zealand,16,GI,36.137741,-5.345374,80
37,201501,Overseas visitor,Arrival,Greece,Greece,New Zealand,144,GR,39.074208,21.824312,86
38,201501,Overseas visitor,Arrival,Guadeloupe,Guadeloupe,New Zealand,16,GP,16.995971,-62.067641,84
39,201501,Overseas visitor,Arrival,Guam,Guam,New Zealand,32,GU,13.444304,144.793731,89
40,201501,Overseas visitor,Arrival,Hong Kong,Hong Kong,New Zealand,1936,HK,22.396428,114.109497,93
41,201501,Overseas visitor,Arrival,Hungary,Hungary,New Zealand,176,HU,47.162494,19.503304,98
42,201501,Overseas visitor,Arrival,Iceland,Iceland,New Zealand,32,IS,64.963051,-19.020835,107
43,201501,Overseas visitor,Arrival,India,India,New Zealand,3200,IN,20.593684,78.96288,103
44,201501,Overseas visitor,Arrival,Indonesia,Indonesia,New Zealand,624,ID,-0.789275,113.921327,99
45,201501,Overseas visitor,Arrival,Iran,Iran,New Zealand,32,IR,32.427908,53.688046,106
46,201501,Overseas visitor,Arrival,Iraq,Iraq,New Zealand,16,IQ,33.223191,43.679291,105
47,201501,Overseas visitor,Arrival,Ireland,Ireland,New Zealand,1456,IE,53.41291,-8.24389,100
48,201501,Overseas visitor,Arrival,Israel,Israel,New Zealand,880,IL,31.046051,34.851612,101
49,201501,Overseas visitor,Arrival,Italy,Italy,New Zealand,1088,IT,41.87194,12.56738,108
50,201501,Overseas visitor,Arrival,Jamaica,Jamaica,New Zealand,16,JM,18.109581,-77.297508,110
51,201501,Overseas visitor,Arrival,Japan,Japan,New Zealand,7472,JP,36.204824,138.252924,112
52,201501,Overseas visitor,Arrival,Jordan,Jordan,New Zealand,16,JO,30.585164,36.238414,111
53,201501,Overseas visitor,Arrival,Kazakhstan,Kazakhstan,New Zealand,16,KZ,48.019573,66.923684,123
54,201501,Overseas visitor,Arrival,Kenya,Kenya,New Zealand,32,KE,-0.023559,37.906193,113
55,201501,Overseas visitor,Arrival,Kiribati,Kiribati,New Zealand,32,KI,-3.370417,-168.734039,116
56,201501,Overseas visitor,Arrival,"Korea, Republic of","Korea, Republic of",New Zealand,10112,KP,40.339852,127.510093,119
57,201501,Overseas visitor,Arrival,Kuwait,Kuwait,New Zealand,48,KW,29.31166,47.481766,121
58,201501,Overseas visitor,Arrival,Kyrgyzstan,Kyrgyzstan,New Zealand,16,KG,41.20438,74.766098,114
59,201501,Overseas visitor,Arrival,Laos,Laos,New Zealand,32,LA,19.85627,102.495496,124
60,201501,Overseas visitor,Arrival,Latvia,Latvia,New Zealand,80,LV,56.879635,24.603189,133
61,201501,Overseas visitor,Arrival,Lebanon,Lebanon,New Zealand,16,LB,33.854721,35.862285,125
62,201501,Overseas visitor,Arrival,Lithuania,Lithuania,New Zealand,32,LT,55.169438,23.881275,131
63,201501,Overseas visitor,Arrival,Luxembourg,Luxembourg,New Zealand,64,LU,49.815273,6.129583,132
64,201501,Overseas visitor,Arrival,Macau,Macau,New Zealand,80,MO,22.198745,113.543873,145
65,201501,Overseas visitor,Arrival,Malaysia,Malaysia,New Zealand,1248,MY,4.210484,101.975766,155
66,201501,Overseas visitor,Arrival,Maldives,Maldives,New Zealand,16,MV,3.202778,73.22068,152
67,201501,Overseas visitor,Arrival,Malta,Malta,New Zealand,64,MT,35.937496,14.375416,150
68,201501,Overseas visitor,Arrival,Mauritius,Mauritius,New Zealand,16,MU,-20.348404,57.552152,151
69,201501,Overseas visitor,Arrival,Mexico,Mexico,New Zealand,368,MX,23.634501,-102.552784,154
70,201501,Overseas visitor,Arrival,Moldova,Moldova,New Zealand,16,MD,47.411631,28.369885,137
71,201501,Overseas visitor,Arrival,Monaco,Monaco,New Zealand,32,MC,43.750298,7.412841,136
72,201501,Overseas visitor,Arrival,Mongolia,Mongolia,New Zealand,16,MN,46.862496,103.846656,144
73,201501,Overseas visitor,Arrival,Morocco,Morocco,New Zealand,16,MA,31.791702,-7.09262,135
74,201501,Overseas visitor,Arrival,Mozambique,Mozambique,New Zealand,16,MZ,-18.665695,35.529562,156
75,201501,Overseas visitor,Arrival,Myanmar,Myanmar,New Zealand,32,MM,21.913965,95.956223,143
76,201501,Overseas visitor,Arrival,Nepal,Nepal,New Zealand,48,NP,28.394857,84.124008,165
77,201501,Overseas visitor,Arrival,Netherlands,Netherlands,New Zealand,3824,NL,52.132633,5.291266,163
78,201501,Overseas visitor,Arrival,New Caledonia,New Caledonia,New Zealand,3024,NC,-20.904305,165.618042,158
79,201501,Overseas visitor,Arrival,New Zealand,New Zealand,New Zealand,1760,NZ,-40.900557,174.885971,168
80,201501,Overseas visitor,Arrival,Nigeria,Nigeria,New Zealand,16,NG,9.081999,8.675277,161
81,201501,Overseas visitor,Arrival,Niue,Niue,New Zealand,80,NU,-19.054445,-169.867233,167
82,201501,Overseas visitor,Arrival,Norfolk Island,Norfolk Island,New Zealand,32,NF,-29.040835,167.954712,160
83,201501,Overseas visitor,Arrival,Norway,Norway,New Zealand,592,NO,60.472024,8.468946,164
84,201501,Overseas visitor,Arrival,Not Stated,Not Stated,New Zealand,5200,,,,
85,201501,Overseas visitor,Arrival,Oman,Oman,New Zealand,48,OM,21.512583,55.923255,169
86,201501,Overseas visitor,Arrival,Pakistan,Pakistan,New Zealand,64,PK,30.375321,69.345116,175
87,201501,Overseas visitor,Arrival,Panama,Panama,New Zealand,16,PA,8.537981,-80.782127,170
88,201501,Overseas visitor,Arrival,Papua New Guinea,Papua New Guinea,New Zealand,224,PG,-6.314993,143.95555,173
89,201501,Overseas visitor,Arrival,Paraguay,Paraguay,New Zealand,32,PY,-23.442503,-58.443832,183
90,201501,Overseas visitor,Arrival,Peru,Peru,New Zealand,80,PE,-9.189967,-75.015152,171
91,201501,Overseas visitor,Arrival,Philippines,Philippines,New Zealand,784,PH,12.879721,121.774017,174
92,201501,Overseas visitor,Arrival,Poland,Poland,New Zealand,544,PL,51.919438,19.145136,176
93,201501,Overseas visitor,Arrival,Portugal,Portugal,New Zealand,112,PT,39.399872,-8.224454,181
94,201501,Overseas visitor,Arrival,Qatar,Qatar,New Zealand,112,QA,25.354826,51.183884,184
95,201501,Overseas visitor,Arrival,Reunion,Reunion,New Zealand,48,RE,-21.115141,55.536384,185
96,201501,Overseas visitor,Arrival,Romania,Romania,New Zealand,112,RO,45.943161,24.96676,186
97,201501,Overseas visitor,Arrival,Russia,Russia,New Zealand,880,RU,61.52401,105.318756,188
98,201501,Overseas visitor,Arrival,Samoa,Samoa,New Zealand,1024,WS,-13.759029,-172.104629,239
99,201501,Overseas visitor,Arrival,Samoa,"Samoa, American",New Zealand,64,WS,-13.759029,-172.104629,239
100,201501,Overseas visitor,Arrival,Saudi Arabia,Saudi Arabia,New Zealand,240,SA,23.885942,45.079162,190
101,201501,Overseas visitor,Arrival,Serbia,Serbia,New Zealand,32,RS,44.016521,21.005859,187
102,201501,Overseas visitor,Arrival,Seychelles,Seychelles,New Zealand,16,SC,-4.679574,55.491977,192
103,201501,Overseas visitor,Arrival,Singapore,Singapore,New Zealand,2208,SG,1.352083,103.819836,195
104,201501,Overseas visitor,Arrival,Slovakia,Slovakia,New Zealand,176,SK,48.669026,19.699024,199
105,201501,Overseas visitor,Arrival,Slovenia,Slovenia,New Zealand,64,SI,46.151241,14.995463,197
106,201501,Overseas visitor,Arrival,Solomon Islands,Solomon Islands,New Zealand,160,SB,-9.64571,160.156194,191
107,201501,Overseas visitor,Arrival,South Africa,South Africa,New Zealand,976,ZA,-30.559482,22.937506,243
108,201501,Overseas visitor,Arrival,Spain,Spain,New Zealand,784,ES,40.463667,-3.74922,65
109,201501,Overseas visitor,Arrival,Sri Lanka,Sri Lanka,New Zealand,160,LK,7.873054,80.771797,128
110,201501,Overseas visitor,Arrival,Sudan,Sudan,New Zealand,16,SD,12.862807,30.217636,193
111,201501,Overseas visitor,Arrival,Sweden,Sweden,New Zealand,2528,SE,60.128161,18.643501,194
112,201501,Overseas visitor,Arrival,Switzerland,Switzerland,New Zealand,3088,CH,46.818188,8.227512,41
113,201501,Overseas visitor,Arrival,Taiwan,Taiwan,New Zealand,3808,TW,23.69781,120.960515,223
114,201501,Overseas visitor,Arrival,Tanzania,Tanzania,New Zealand,16,TZ,-6.369028,34.888822,224
115,201501,Overseas visitor,Arrival,Thailand,Thailand,New Zealand,848,TH,15.870032,100.992541,213
116,201501,Overseas visitor,Arrival,Tokelau,Tokelau,New Zealand,16,TK,-8.967363,-171.855881,215
117,201501,Overseas visitor,Arrival,Tonga,Tonga,New Zealand,880,TO,-21.178986,-175.198242,219
118,201501,Overseas visitor,Arrival,Turkey,Turkey,New Zealand,208,TR,38.963745,35.243322,220
119,201501,Overseas visitor,Arrival,Tuvalu,Tuvalu,New Zealand,32,TV,-7.109535,177.64933,222
120,201501,Overseas visitor,Arrival,Uganda,Uganda,New Zealand,16,UG,1.373333,32.290275,226
121,201501,Overseas visitor,Arrival,Ukraine,Ukraine,New Zealand,80,UA,48.379433,31.16558,225
122,201501,Overseas visitor,Arrival,United Arab Emirates,United Arab Emirates,New Zealand,576,AE,23.424076,53.847818,2
123,201501,Overseas visitor,Arrival,United Kingdom,United Kingdom,New Zealand,31536,GB,55.378051,-3.435973,74
124,201501,Overseas visitor,Arrival,United States,United States,New Zealand,24560,US,37.09024,-95.712891,228
125,201501,Overseas visitor,Arrival,Uruguay,Uruguay,New Zealand,48,UY,-32.522779,-55.765835,229
126,201501,Overseas visitor,Arrival,Vanuatu,Vanuatu,New Zealand,208,VU,-15.376706,166.959158,237
127,201501,Overseas visitor,Arrival,Venezuela,Venezuela,New Zealand,16,VE,6.42375,-66.58973,233
128,201501,Overseas visitor,Arrival,Viet Nam,Viet Nam,New Zealand,256,VN,14.058324,108.277199,236
129,201501,Overseas visitor,Arrival,Wallis and Futuna,Wallis and Futuna,New Zealand,48,WF,-13.768752,-177.156097,238
130,201501,Overseas visitor,Arrival,Zambia,Zambia,New Zealand,16,ZM,-13.133897,27.849332,244
131,201501,Overseas visitor,Arrival,Zimbabwe,Zimbabwe,New Zealand,48,ZW,-19.015438,29.154857,245
132,201501,Overseas visitor,Departure,Angola,New Zealand,Angola,52,AO,-11.202692,17.873887,9
133,201501,Overseas visitor,Departure,Antarctica,New Zealand,Antarctica,26,AQ,-75.250973,-0.071389,10
134,201501,Overseas visitor,Departure,Argentina,New Zealand,Argentina,364,AR,-38.416097,-63.616672,11
135,201501,Overseas visitor,Departure,Australia,New Zealand,Australia,181350,AU,-25.274398,133.775136,14
136,201501,Overseas visitor,Departure,Austria,New Zealand,Austria,1248,AT,47.516231,14.550072,13
137,201501,Overseas visitor,Departure,Bahrain,New Zealand,Bahrain,26,BH,25.930414,50.637772,23
138,201501,Overseas visitor,Departure,Bangladesh,New Zealand,Bangladesh,78,BD,23.684994,90.356331,19
139,201501,Overseas visitor,Departure,Belgium,New Zealand,Belgium,1196,BE,50.503887,4.469936,20
140,201501,Overseas visitor,Departure,Benin,New Zealand,Benin,26,BJ,9.30769,2.315834,25
141,201501,Overseas visitor,Departure,Bermuda,New Zealand,Bermuda,52,BM,32.321384,-64.75737,26
142,201501,Overseas visitor,Departure,Bolivia,New Zealand,Bolivia,26,BO,-16.290154,-63.588653,28
143,201501,Overseas visitor,Departure,Brazil,New Zealand,Brazil,2106,BR,-14.235004,-51.92528,29
144,201501,Overseas visitor,Departure,Brunei Darussalam,New Zealand,Brunei Darussalam,182,BN,4.535277,114.727669,27
145,201501,Overseas visitor,Departure,Bulgaria,New Zealand,Bulgaria,104,BG,42.733883,25.48583,22
146,201501,Overseas visitor,Departure,Cambodia,New Zealand,Cambodia,156,KH,12.565679,104.990963,115
147,201501,Overseas visitor,Departure,Canada,New Zealand,Canada,5928,CA,56.130366,-106.346771,36
148,201501,Overseas visitor,Departure,Chile,New Zealand,Chile,676,CL,-35.675147,-71.542969,44
149,201501,Overseas visitor,Departure,China,New Zealand,China,22750,CN,35.86166,104.195397,46
150,201501,Overseas visitor,Departure,Colombia,New Zealand,Colombia,130,CO,4.570868,-74.297333,47
151,201501,Overseas visitor,Departure,Cook Islands,New Zealand,Cook Islands,1274,CK,-21.236736,-159.777671,43
152,201501,Overseas visitor,Departure,Croatia,New Zealand,Croatia,26,HR,45.1,15.2,96
153,201501,Overseas visitor,Departure,Cyprus,New Zealand,Cyprus,52,CY,35.126413,33.429859,52
154,201501,Overseas visitor,Departure,Czech Republic,New Zealand,Czech Republic,676,CZ,49.817492,15.472962,53
155,201501,Overseas visitor,Departure,Denmark,New Zealand,Denmark,1898,DK,56.26392,9.501785,56
156,201501,Overseas visitor,Departure,Dominican Republic,New Zealand,Dominican Republic,26,DO,18.735693,-70.162651,58
157,201501,Overseas visitor,Departure,Ecuador,New Zealand,Ecuador,78,EC,-1.831239,-78.183406,60
158,201501,Overseas visitor,Departure,Egypt,New Zealand,Egypt,52,EG,26.820553,30.802498,62
159,201501,Overseas visitor,Departure,Estonia,New Zealand,Estonia,26,EE,58.595272,25.013607,61
160,201501,Overseas visitor,Departure,Fiji,New Zealand,Fiji,3432,FJ,-16.578193,179.414413,68
161,201501,Overseas visitor,Departure,Finland,New Zealand,Finland,910,FI,61.92411,25.748151,67
162,201501,Overseas visitor,Departure,France,New Zealand,France,4550,FR,46.227638,2.213749,72
163,201501,Overseas visitor,Departure,French Polynesia,New Zealand,French Polynesia,2080,PF,-17.679742,-149.406843,172
164,201501,Overseas visitor,Departure,Germany,New Zealand,Germany,14612,DE,51.165691,10.451526,54
165,201501,Overseas visitor,Departure,Ghana,New Zealand,Ghana,26,GH,7.946527,-1.023194,79
166,201501,Overseas visitor,Departure,Greece,New Zealand,Greece,234,GR,39.074208,21.824312,86
167,201501,Overseas visitor,Departure,Guam,New Zealand,Guam,52,GU,13.444304,144.793731,89
168,201501,Overseas visitor,Departure,Guinea,New Zealand,Guinea,26,GN,9.945587,-9.696645,83
169,201501,Overseas visitor,Departure,Hong Kong,New Zealand,Hong Kong,3588,HK,22.396428,114.109497,93
170,201501,Overseas visitor,Departure,Hungary,New Zealand,Hungary,130,HU,47.162494,19.503304,98
171,201501,Overseas visitor,Departure,Iceland,New Zealand,Iceland,78,IS,64.963051,-19.020835,107
172,201501,Overseas visitor,Departure,India,New Zealand,India,4420,IN,20.593684,78.96288,103
173,201501,Overseas visitor,Departure,Indonesia,New Zealand,Indonesia,1898,ID,-0.789275,113.921327,99
174,201501,Overseas visitor,Departure,Iraq,New Zealand,Iraq,26,IQ,33.223191,43.679291,105
175,201501,Overseas visitor,Departure,Ireland,New Zealand,Ireland,1924,IE,53.41291,-8.24389,100
176,201501,Overseas visitor,Departure,Israel,New Zealand,Israel,494,IL,31.046051,34.851612,101
177,201501,Overseas visitor,Departure,Italy,New Zealand,Italy,1300,IT,41.87194,12.56738,108
178,201501,Overseas visitor,Departure,Japan,New Zealand,Japan,9542,JP,36.204824,138.252924,112
179,201501,Overseas visitor,Departure,Kazakhstan,New Zealand,Kazakhstan,78,KZ,48.019573,66.923684,123
180,201501,Overseas visitor,Departure,Kenya,New Zealand,Kenya,52,KE,-0.023559,37.906193,113
181,201501,Overseas visitor,Departure,Kiribati,New Zealand,Kiribati,26,KI,-3.370417,-168.734039,116
182,201501,Overseas visitor,Departure,"Korea, Republic of",New Zealand,"Korea, Republic of",8814,KP,40.339852,127.510093,119
183,201501,Overseas visitor,Departure,Kuwait,New Zealand,Kuwait,52,KW,29.31166,47.481766,121
184,201501,Overseas visitor,Departure,Laos,New Zealand,Laos,52,LA,19.85627,102.495496,124
185,201501,Overseas visitor,Departure,Latvia,New Zealand,Latvia,78,LV,56.879635,24.603189,133
186,201501,Overseas visitor,Departure,Luxembourg,New Zealand,Luxembourg,26,LU,49.815273,6.129583,132
187,201501,Overseas visitor,Departure,Macau,New Zealand,Macau,78,MO,22.198745,113.543873,145
188,201501,Overseas visitor,Departure,Malaysia,New Zealand,Malaysia,2080,MY,4.210484,101.975766,155
189,201501,Overseas visitor,Departure,Maldives,New Zealand,Maldives,26,MV,3.202778,73.22068,152
190,201501,Overseas visitor,Departure,Malta,New Zealand,Malta,52,MT,35.937496,14.375416,150
191,201501,Overseas visitor,Departure,Mauritius,New Zealand,Mauritius,26,MU,-20.348404,57.552152,151
192,201501,Overseas visitor,Departure,Mexico,New Zealand,Mexico,572,MX,23.634501,-102.552784,154
193,201501,Overseas visitor,Departure,"Micronesia, Federated States of",New Zealand,"Micronesia, Federated States of",26,FM,7.425554,150.550812,70
194,201501,Overseas visitor,Departure,Monaco,New Zealand,Monaco,52,MC,43.750298,7.412841,136
195,201501,Overseas visitor,Departure,Mongolia,New Zealand,Mongolia,104,MN,46.862496,103.846656,144
196,201501,Overseas visitor,Departure,Morocco,New Zealand,Morocco,26,MA,31.791702,-7.09262,135
197,201501,Overseas visitor,Departure,Mozambique,New Zealand,Mozambique,78,MZ,-18.665695,35.529562,156
198,201501,Overseas visitor,Departure,Myanmar,New Zealand,Myanmar,26,MM,21.913965,95.956223,143
199,201501,Overseas visitor,Departure,Nepal,New Zealand,Nepal,78,NP,28.394857,84.124008,165
200,201501,Overseas visitor,Departure,Netherlands,New Zealand,Netherlands,3432,NL,52.132633,5.291266,163
201,201501,Overseas visitor,Departure,New Caledonia,New Zealand,New Caledonia,2886,NC,-20.904305,165.618042,158
202,201501,Overseas visitor,Departure,New Zealand,New Zealand,New Zealand,2548,NZ,-40.900557,174.885971,168
203,201501,Overseas visitor,Departure,Nigeria,New Zealand,Nigeria,26,NG,9.081999,8.675277,161
204,201501,Overseas visitor,Departure,Niue,New Zealand,Niue,182,NU,-19.054445,-169.867233,167
205,201501,Overseas visitor,Departure,Norfolk Island,New Zealand,Norfolk Island,26,NF,-29.040835,167.954712,160
206,201501,Overseas visitor,Departure,Norway,New Zealand,Norway,780,NO,60.472024,8.468946,164
207,201501,Overseas visitor,Departure,Not Stated,New Zealand,Not Stated,15054,,,,
208,201501,Overseas visitor,Departure,Oman,New Zealand,Oman,26,OM,21.512583,55.923255,169
209,201501,Overseas visitor,Departure,Pakistan,New Zealand,Pakistan,130,PK,30.375321,69.345116,175
210,201501,Overseas visitor,Departure,Panama,New Zealand,Panama,26,PA,8.537981,-80.782127,170
211,201501,Overseas visitor,Departure,Papua New Guinea,New Zealand,Papua New Guinea,182,PG,-6.314993,143.95555,173
212,201501,Overseas visitor,Departure,Peru,New Zealand,Peru,52,PE,-9.189967,-75.015152,171
213,201501,Overseas visitor,Departure,Philippines,New Zealand,Philippines,1092,PH,12.879721,121.774017,174
214,201501,Overseas visitor,Departure,Poland,New Zealand,Poland,442,PL,51.919438,19.145136,176
215,201501,Overseas visitor,Departure,Portugal,New Zealand,Portugal,104,PT,39.399872,-8.224454,181
216,201501,Overseas visitor,Departure,Puerto Rico,New Zealand,Puerto Rico,26,PR,18.220833,-66.590149,179
217,201501,Overseas visitor,Departure,Qatar,New Zealand,Qatar,130,QA,25.354826,51.183884,184
218,201501,Overseas visitor,Departure,Reunion,New Zealand,Reunion,130,RE,-21.115141,55.536384,185
219,201501,Overseas visitor,Departure,Romania,New Zealand,Romania,156,RO,45.943161,24.96676,186
220,201501,Overseas visitor,Departure,Russia,New Zealand,Russia,1430,RU,61.52401,105.318756,188
221,201501,Overseas visitor,Departure,Samoa,New Zealand,Samoa,2678,WS,-13.759029,-172.104629,239
222,201501,Overseas visitor,Departure,Samoa,New Zealand,"Samoa, American",156,WS,-13.759029,-172.104629,239
223,201501,Overseas visitor,Departure,Saudi Arabia,New Zealand,Saudi Arabia,286,SA,23.885942,45.079162,190
224,201501,Overseas visitor,Departure,Senegal,New Zealand,Senegal,26,SN,14.497401,-14.452362,202
225,201501,Overseas visitor,Departure,Singapore,New Zealand,Singapore,4316,SG,1.352083,103.819836,195
226,201501,Overseas visitor,Departure,Slovakia,New Zealand,Slovakia,156,SK,48.669026,19.699024,199
227,201501,Overseas visitor,Departure,Slovenia,New Zealand,Slovenia,52,SI,46.151241,14.995463,197
228,201501,Overseas visitor,Departure,Solomon Islands,New Zealand,Solomon Islands,130,SB,-9.64571,160.156194,191
229,201501,Overseas visitor,Departure,South Africa,New Zealand,South Africa,3770,ZA,-30.559482,22.937506,243
230,201501,Overseas visitor,Departure,South Sudan,New Zealand,South Sudan,26,,8,30,248
231,201501,Overseas visitor,Departure,Spain,New Zealand,Spain,1040,ES,40.463667,-3.74922,65
232,201501,Overseas visitor,Departure,Sri Lanka,New Zealand,Sri Lanka,468,LK,7.873054,80.771797,128
233,201501,Overseas visitor,Departure,Sweden,New Zealand,Sweden,3068,SE,60.128161,18.643501,194
234,201501,Overseas visitor,Departure,Switzerland,New Zealand,Switzerland,3666,CH,46.818188,8.227512,41
235,201501,Overseas visitor,Departure,Taiwan,New Zealand,Taiwan,2964,TW,23.69781,120.960515,223
236,201501,Overseas visitor,Departure,Thailand,New Zealand,Thailand,1430,TH,15.870032,100.992541,213
237,201501,Overseas visitor,Departure,Timor-Leste,New Zealand,Timor-Leste,52,TL,-8.874217,125.727539,216
238,201501,Overseas visitor,Departure,Tokelau,New Zealand,Tokelau,52,TK,-8.967363,-171.855881,215
239,201501,Overseas visitor,Departure,Tonga,New Zealand,Tonga,2652,TO,-21.178986,-175.198242,219
240,201501,Overseas visitor,Departure,Tunisia,New Zealand,Tunisia,26,TN,33.886917,9.537499,218
241,201501,Overseas visitor,Departure,Turkey,New Zealand,Turkey,182,TR,38.963745,35.243322,220
242,201501,Overseas visitor,Departure,Tuvalu,New Zealand,Tuvalu,52,TV,-7.109535,177.64933,222
243,201501,Overseas visitor,Departure,Ukraine,New Zealand,Ukraine,104,UA,48.379433,31.16558,225
244,201501,Overseas visitor,Departure,United Arab Emirates,New Zealand,United Arab Emirates,884,AE,23.424076,53.847818,2
245,201501,Overseas visitor,Departure,United Kingdom,New Zealand,United Kingdom,33202,GB,55.378051,-3.435973,74
246,201501,Overseas visitor,Departure,United States,New Zealand,United States,30680,US,37.09024,-95.712891,228
247,201501,Overseas visitor,Departure,Uruguay,New Zealand,Uruguay,52,UY,-32.522779,-55.765835,229
248,201501,Overseas visitor,Departure,Vanuatu,New Zealand,Vanuatu,416,VU,-15.376706,166.959158,237
249,201501,Overseas visitor,Departure,Venezuela,New Zealand,Venezuela,26,VE,6.42375,-66.58973,233
250,201501,Overseas visitor,Departure,Viet Nam,New Zealand,Viet Nam,364,VN,14.058324,108.277199,236
251,201501,Overseas visitor,Departure,"Virgin Islands, British",New Zealand,"Virgin Islands, British",26,,18.3,-64.3,249
252,201501,Overseas visitor,Departure,Zambia,New Zealand,Zambia,52,ZM,-13.133897,27.849332,244
253,201501,Overseas visitor,Departure,Zimbabwe,New Zealand,Zimbabwe,78,ZW,-19.015438,29.154857,245
254,201501,NZ resident,Departure,Afghanistan,New Zealand,Afghanistan,20,AF,33.93911,67.709953,3
255,201501,NZ resident,Departure,Albania,New Zealand,Albania,20,AL,41.153332,20.168331,6
256,201501,NZ resident,Departure,Angola,New Zealand,Angola,20,AO,-11.202692,17.873887,9
257,201501,NZ resident,Departure,Antarctica,New Zealand,Antarctica,40,AQ,-75.250973,-0.071389,10
258,201501,NZ resident,Departure,Argentina,New Zealand,Argentina,140,AR,-38.416097,-63.616672,11
259,201501,NZ resident,Departure,Australia,New Zealand,Australia,67420,AU,-25.274398,133.775136,14
260,201501,NZ resident,Departure,Austria,New Zealand,Austria,20,AT,47.516231,14.550072,13
261,201501,NZ resident,Departure,Bahamas,New Zealand,Bahamas,40,BS,25.03428,-77.39628,30
262,201501,NZ resident,Departure,Bangladesh,New Zealand,Bangladesh,40,BD,23.684994,90.356331,19
263,201501,NZ resident,Departure,Belgium,New Zealand,Belgium,20,BE,50.503887,4.469936,20
264,201501,NZ resident,Departure,Brazil,New Zealand,Brazil,120,BR,-14.235004,-51.92528,29
265,201501,NZ resident,Departure,Brunei Darussalam,New Zealand,Brunei Darussalam,20,BN,4.535277,114.727669,27
266,201501,NZ resident,Departure,Bulgaria,New Zealand,Bulgaria,20,BG,42.733883,25.48583,22
267,201501,NZ resident,Departure,Cambodia,New Zealand,Cambodia,580,KH,12.565679,104.990963,115
268,201501,NZ resident,Departure,Canada,New Zealand,Canada,1720,CA,56.130366,-106.346771,36
269,201501,NZ resident,Departure,Chile,New Zealand,Chile,180,CL,-35.675147,-71.542969,44
270,201501,NZ resident,Departure,China,New Zealand,China,5000,CN,35.86166,104.195397,46
271,201501,NZ resident,Departure,Colombia,New Zealand,Colombia,40,CO,4.570868,-74.297333,47
272,201501,NZ resident,Departure,Cook Islands,New Zealand,Cook Islands,3420,CK,-21.236736,-159.777671,43
273,201501,NZ resident,Departure,Costa Rica,New Zealand,Costa Rica,40,CR,9.748917,-83.753428,48
274,201501,NZ resident,Departure,Cuba,New Zealand,Cuba,20,CU,21.521757,-77.781167,49
275,201501,NZ resident,Departure,Ecuador,New Zealand,Ecuador,40,EC,-1.831239,-78.183406,60
276,201501,NZ resident,Departure,Egypt,New Zealand,Egypt,80,EG,26.820553,30.802498,62
277,201501,NZ resident,Departure,El Salvador,New Zealand,El Salvador,20,SV,13.794185,-88.89653,206
278,201501,NZ resident,Departure,Eritrea,New Zealand,Eritrea,20,ER,15.179384,39.782334,64
279,201501,NZ resident,Departure,Fiji,New Zealand,Fiji,7400,FJ,-16.578193,179.414413,68
280,201501,NZ resident,Departure,France,New Zealand,France,500,FR,46.227638,2.213749,72
281,201501,NZ resident,Departure,French Polynesia,New Zealand,French Polynesia,320,PF,-17.679742,-149.406843,172
282,201501,NZ resident,Departure,Germany,New Zealand,Germany,560,DE,51.165691,10.451526,54
283,201501,NZ resident,Departure,Greece,New Zealand,Greece,40,GR,39.074208,21.824312,86
284,201501,NZ resident,Departure,Guatemala,New Zealand,Guatemala,20,GT,15.783471,-90.230759,88
285,201501,NZ resident,Departure,Honduras,New Zealand,Honduras,40,HN,15.199999,-86.241905,95
286,201501,NZ resident,Departure,Hong Kong,New Zealand,Hong Kong,920,HK,22.396428,114.109497,93
287,201501,NZ resident,Departure,Hungary,New Zealand,Hungary,60,HU,47.162494,19.503304,98
288,201501,NZ resident,Departure,India,New Zealand,India,5780,IN,20.593684,78.96288,103
289,201501,NZ resident,Departure,Indonesia,New Zealand,Indonesia,1540,ID,-0.789275,113.921327,99
290,201501,NZ resident,Departure,Iran,New Zealand,Iran,40,IR,32.427908,53.688046,106
291,201501,NZ resident,Departure,Ireland,New Zealand,Ireland,180,IE,53.41291,-8.24389,100
292,201501,NZ resident,Departure,Israel,New Zealand,Israel,40,IL,31.046051,34.851612,101
293,201501,NZ resident,Departure,Italy,New Zealand,Italy,400,IT,41.87194,12.56738,108
294,201501,NZ resident,Departure,Jamaica,New Zealand,Jamaica,20,JM,18.109581,-77.297508,110
295,201501,NZ resident,Departure,Japan,New Zealand,Japan,1880,JP,36.204824,138.252924,112
296,201501,NZ resident,Departure,Jordan,New Zealand,Jordan,20,JO,30.585164,36.238414,111
297,201501,NZ resident,Departure,Kazakhstan,New Zealand,Kazakhstan,20,KZ,48.019573,66.923684,123
298,201501,NZ resident,Departure,Kiribati,New Zealand,Kiribati,40,KI,-3.370417,-168.734039,116
299,201501,NZ resident,Departure,"Korea, Republic of",New Zealand,"Korea, Republic of",740,KP,40.339852,127.510093,119
300,201501,NZ resident,Departure,Laos,New Zealand,Laos,60,LA,19.85627,102.495496,124
301,201501,NZ resident,Departure,Macau,New Zealand,Macau,20,MO,22.198745,113.543873,145
302,201501,NZ resident,Departure,Malawi,New Zealand,Malawi,20,MW,-13.254308,34.301525,153
303,201501,NZ resident,Departure,Malaysia,New Zealand,Malaysia,1200,MY,4.210484,101.975766,155
304,201501,NZ resident,Departure,Mauritius,New Zealand,Mauritius,80,MU,-20.348404,57.552152,151
305,201501,NZ resident,Departure,Mexico,New Zealand,Mexico,120,MX,23.634501,-102.552784,154
306,201501,NZ resident,Departure,Monaco,New Zealand,Monaco,20,MC,43.750298,7.412841,136
307,201501,NZ resident,Departure,Mozambique,New Zealand,Mozambique,20,MZ,-18.665695,35.529562,156
308,201501,NZ resident,Departure,Myanmar,New Zealand,Myanmar,120,MM,21.913965,95.956223,143
309,201501,NZ resident,Departure,Nauru,New Zealand,Nauru,80,NR,-0.522778,166.931503,166
310,201501,NZ resident,Departure,Nepal,New Zealand,Nepal,80,NP,28.394857,84.124008,165
311,201501,NZ resident,Departure,Netherlands,New Zealand,Netherlands,160,NL,52.132633,5.291266,163
312,201501,NZ resident,Departure,New Caledonia,New Zealand,New Caledonia,380,NC,-20.904305,165.618042,158
313,201501,NZ resident,Departure,Niue,New Zealand,Niue,220,NU,-19.054445,-169.867233,167
314,201501,NZ resident,Departure,Norfolk Island,New Zealand,Norfolk Island,300,NF,-29.040835,167.954712,160
315,201501,NZ resident,Departure,Not Stated,New Zealand,Not Stated,3020,,,,
316,201501,NZ resident,Departure,Oman,New Zealand,Oman,60,OM,21.512583,55.923255,169
317,201501,NZ resident,Departure,Pakistan,New Zealand,Pakistan,80,PK,30.375321,69.345116,175
318,201501,NZ resident,Departure,Papua New Guinea,New Zealand,Papua New Guinea,520,PG,-6.314993,143.95555,173
319,201501,NZ resident,Departure,Peru,New Zealand,Peru,20,PE,-9.189967,-75.015152,171
320,201501,NZ resident,Departure,Philippines,New Zealand,Philippines,1200,PH,12.879721,121.774017,174
321,201501,NZ resident,Departure,Poland,New Zealand,Poland,20,PL,51.919438,19.145136,176
322,201501,NZ resident,Departure,Portugal,New Zealand,Portugal,20,PT,39.399872,-8.224454,181
323,201501,NZ resident,Departure,Qatar,New Zealand,Qatar,20,QA,25.354826,51.183884,184
324,201501,NZ resident,Departure,Russia,New Zealand,Russia,60,RU,61.52401,105.318756,188
325,201501,NZ resident,Departure,Samoa,New Zealand,Samoa,4000,WS,-13.759029,-172.104629,239
326,201501,NZ resident,Departure,Saudi Arabia,New Zealand,Saudi Arabia,80,SA,23.885942,45.079162,190
327,201501,NZ resident,Departure,Sierra Leone,New Zealand,Sierra Leone,20,SL,8.460555,-11.779889,200
328,201501,NZ resident,Departure,Singapore,New Zealand,Singapore,1460,SG,1.352083,103.819836,195
329,201501,NZ resident,Departure,Slovakia,New Zealand,Slovakia,20,SK,48.669026,19.699024,199
330,201501,NZ resident,Departure,Solomon Islands,New Zealand,Solomon Islands,60,SB,-9.64571,160.156194,191
331,201501,NZ resident,Departure,Somalia,New Zealand,Somalia,20,SO,5.152149,46.199616,203
332,201501,NZ resident,Departure,South Africa,New Zealand,South Africa,820,ZA,-30.559482,22.937506,243
333,201501,NZ resident,Departure,Spain,New Zealand,Spain,120,ES,40.463667,-3.74922,65
334,201501,NZ resident,Departure,Sri Lanka,New Zealand,Sri Lanka,320,LK,7.873054,80.771797,128
335,201501,NZ resident,Departure,St Maarten (Dutch Part),New Zealand,St Maarten (Dutch Part),20,,,,
336,201501,NZ resident,Departure,Sweden,New Zealand,Sweden,40,SE,60.128161,18.643501,194
337,201501,NZ resident,Departure,Switzerland,New Zealand,Switzerland,180,CH,46.818188,8.227512,41
338,201501,NZ resident,Departure,Taiwan,New Zealand,Taiwan,940,TW,23.69781,120.960515,223
339,201501,NZ resident,Departure,Thailand,New Zealand,Thailand,1940,TH,15.870032,100.992541,213
340,201501,NZ resident,Departure,Timor-Leste,New Zealand,Timor-Leste,20,TL,-8.874217,125.727539,216
341,201501,NZ resident,Departure,Tonga,New Zealand,Tonga,1620,TO,-21.178986,-175.198242,219
342,201501,NZ resident,Departure,Turkey,New Zealand,Turkey,40,TR,38.963745,35.243322,220
343,201501,NZ resident,Departure,Tuvalu,New Zealand,Tuvalu,20,TV,-7.109535,177.64933,222
344,201501,NZ resident,Departure,United Arab Emirates,New Zealand,United Arab Emirates,480,AE,23.424076,53.847818,2
345,201501,NZ resident,Departure,United Kingdom,New Zealand,United Kingdom,2500,GB,55.378051,-3.435973,74
346,201501,NZ resident,Departure,United States,New Zealand,United States,9840,US,37.09024,-95.712891,228
347,201501,NZ resident,Departure,Uruguay,New Zealand,Uruguay,20,UY,-32.522779,-55.765835,229
348,201501,NZ resident,Departure,Vanuatu,New Zealand,Vanuatu,680,VU,-15.376706,166.959158,237
349,201501,NZ resident,Departure,Venezuela,New Zealand,Venezuela,20,VE,6.42375,-66.58973,233
350,201501,NZ resident,Departure,Viet Nam,New Zealand,Viet Nam,1000,VN,14.058324,108.277199,236
351,201501,NZ resident,Departure,Zimbabwe,New Zealand,Zimbabwe,20,ZW,-19.015438,29.154857,245
352,201501,PLT,Arrival,Afghanistan,Afghanistan,New Zealand,19,AF,33.93911,67.709953,3
353,201501,PLT,Arrival,Algeria,Algeria,New Zealand,1,DZ,28.033886,1.659626,59
354,201501,PLT,Arrival,Antigua and Barbuda,Antigua and Barbuda,New Zealand,1,AG,17.060816,-61.796428,4
355,201501,PLT,Arrival,Argentina,Argentina,New Zealand,34,AR,-38.416097,-63.616672,11
356,201501,PLT,Arrival,Australia,Australia,New Zealand,2703,AU,-25.274398,133.775136,14
357,201501,PLT,Arrival,Austria,Austria,New Zealand,13,AT,47.516231,14.550072,13
358,201501,PLT,Arrival,Bahamas,Bahamas,New Zealand,2,BS,25.03428,-77.39628,30
359,201501,PLT,Arrival,Bahrain,Bahrain,New Zealand,2,BH,25.930414,50.637772,23
360,201501,PLT,Arrival,Bangladesh,Bangladesh,New Zealand,16,BD,23.684994,90.356331,19
361,201501,PLT,Arrival,Belarus,Belarus,New Zealand,1,BY,53.709807,27.953389,34
362,201501,PLT,Arrival,Belgium,Belgium,New Zealand,33,BE,50.503887,4.469936,20
363,201501,PLT,Arrival,Bolivia,Bolivia,New Zealand,3,BO,-16.290154,-63.588653,28
364,201501,PLT,Arrival,Botswana,Botswana,New Zealand,3,BW,-22.328474,24.684866,33
365,201501,PLT,Arrival,Brazil,Brazil,New Zealand,55,BR,-14.235004,-51.92528,29
366,201501,PLT,Arrival,Brunei Darussalam,Brunei Darussalam,New Zealand,8,BN,4.535277,114.727669,27
367,201501,PLT,Arrival,Cambodia,Cambodia,New Zealand,22,KH,12.565679,104.990963,115
368,201501,PLT,Arrival,Cameroon,Cameroon,New Zealand,2,CM,7.369722,12.354722,45
369,201501,PLT,Arrival,Canada,Canada,New Zealand,224,CA,56.130366,-106.346771,36
370,201501,PLT,Arrival,Cayman Islands,Cayman Islands,New Zealand,4,KY,19.513469,-80.566956,122
371,201501,PLT,Arrival,Chile,Chile,New Zealand,31,CL,-35.675147,-71.542969,44
372,201501,PLT,Arrival,China,China,New Zealand,1391,CN,35.86166,104.195397,46
373,201501,PLT,Arrival,Colombia,Colombia,New Zealand,10,CO,4.570868,-74.297333,47
374,201501,PLT,Arrival,Cook Islands,Cook Islands,New Zealand,39,CK,-21.236736,-159.777671,43
375,201501,PLT,Arrival,Costa Rica,Costa Rica,New Zealand,4,CR,9.748917,-83.753428,48
376,201501,PLT,Arrival,Croatia,Croatia,New Zealand,8,HR,45.1,15.2,96
377,201501,PLT,Arrival,Czech Republic,Czech Republic,New Zealand,32,CZ,49.817492,15.472962,53
378,201501,PLT,Arrival,Denmark,Denmark,New Zealand,16,DK,56.26392,9.501785,56
379,201501,PLT,Arrival,Ecuador,Ecuador,New Zealand,4,EC,-1.831239,-78.183406,60
380,201501,PLT,Arrival,Egypt,Egypt,New Zealand,49,EG,26.820553,30.802498,62
381,201501,PLT,Arrival,Eritrea,Eritrea,New Zealand,1,ER,15.179384,39.782334,64
382,201501,PLT,Arrival,Estonia,Estonia,New Zealand,3,EE,58.595272,25.013607,61
383,201501,PLT,Arrival,Ethiopia,Ethiopia,New Zealand,1,ET,9.145,40.489673,66
384,201501,PLT,Arrival,Fiji,Fiji,New Zealand,139,FJ,-16.578193,179.414413,68
385,201501,PLT,Arrival,Finland,Finland,New Zealand,22,FI,61.92411,25.748151,67
386,201501,PLT,Arrival,Former Yugoslav Republic of Macedonia (FYROM),Former Yugoslav Republic of Macedonia (FYROM),New Zealand,1,,,,
387,201501,PLT,Arrival,France,France,New Zealand,418,FR,46.227638,2.213749,72
388,201501,PLT,Arrival,French Polynesia,French Polynesia,New Zealand,7,PF,-17.679742,-149.406843,172
389,201501,PLT,Arrival,Gabon,Gabon,New Zealand,1,GA,-0.803689,11.609444,73
390,201501,PLT,Arrival,Gaza Strip/Palestine/West Bank,Gaza Strip/Palestine/West Bank,New Zealand,1,GZ,31.354676,34.308825,92
391,201501,PLT,Arrival,Germany,Germany,New Zealand,305,DE,51.165691,10.451526,54
392,201501,PLT,Arrival,Ghana,Ghana,New Zealand,7,GH,7.946527,-1.023194,79
393,201501,PLT,Arrival,Greece,Greece,New Zealand,6,GR,39.074208,21.824312,86
394,201501,PLT,Arrival,Guam,Guam,New Zealand,1,GU,13.444304,144.793731,89
395,201501,PLT,Arrival,Guatemala,Guatemala,New Zealand,1,GT,15.783471,-90.230759,88
396,201501,PLT,Arrival,Guyana,Guyana,New Zealand,1,GY,4.860416,-58.93018,91
397,201501,PLT,Arrival,Honduras,Honduras,New Zealand,3,HN,15.199999,-86.241905,95
398,201501,PLT,Arrival,Hong Kong,Hong Kong,New Zealand,189,HK,22.396428,114.109497,93
399,201501,PLT,Arrival,Hungary,Hungary,New Zealand,14,HU,47.162494,19.503304,98
400,201501,PLT,Arrival,Iceland,Iceland,New Zealand,1,IS,64.963051,-19.020835,107
401,201501,PLT,Arrival,India,India,New Zealand,1244,IN,20.593684,78.96288,103
402,201501,PLT,Arrival,Indonesia,Indonesia,New Zealand,80,ID,-0.789275,113.921327,99
403,201501,PLT,Arrival,Iran,Iran,New Zealand,23,IR,32.427908,53.688046,106
404,201501,PLT,Arrival,Iraq,Iraq,New Zealand,9,IQ,33.223191,43.679291,105
405,201501,PLT,Arrival,Ireland,Ireland,New Zealand,135,IE,53.41291,-8.24389,100
406,201501,PLT,Arrival,Israel,Israel,New Zealand,21,IL,31.046051,34.851612,101
407,201501,PLT,Arrival,Italy,Italy,New Zealand,51,IT,41.87194,12.56738,108
408,201501,PLT,Arrival,Jamaica,Jamaica,New Zealand,3,JM,18.109581,-77.297508,110
409,201501,PLT,Arrival,Japan,Japan,New Zealand,289,JP,36.204824,138.252924,112
410,201501,PLT,Arrival,Jordan,Jordan,New Zealand,12,JO,30.585164,36.238414,111
411,201501,PLT,Arrival,Kazakhstan,Kazakhstan,New Zealand,3,KZ,48.019573,66.923684,123
412,201501,PLT,Arrival,Kenya,Kenya,New Zealand,6,KE,-0.023559,37.906193,113
413,201501,PLT,Arrival,Kiribati,Kiribati,New Zealand,19,KI,-3.370417,-168.734039,116
414,201501,PLT,Arrival,"Korea, Republic of","Korea, Republic of",New Zealand,289,KP,40.339852,127.510093,119
415,201501,PLT,Arrival,Kosovo,Kosovo,New Zealand,1,XK,42.602636,20.902977,240
416,201501,PLT,Arrival,Kuwait,Kuwait,New Zealand,11,KW,29.31166,47.481766,121
417,201501,PLT,Arrival,Laos,Laos,New Zealand,8,LA,19.85627,102.495496,124
418,201501,PLT,Arrival,Latvia,Latvia,New Zealand,3,LV,56.879635,24.603189,133
419,201501,PLT,Arrival,Lebanon,Lebanon,New Zealand,1,LB,33.854721,35.862285,125
420,201501,PLT,Arrival,Libya,Libya,New Zealand,1,LY,26.3351,17.228331,134
421,201501,PLT,Arrival,Macau,Macau,New Zealand,3,MO,22.198745,113.543873,145
422,201501,PLT,Arrival,Malaysia,Malaysia,New Zealand,168,MY,4.210484,101.975766,155
423,201501,PLT,Arrival,Maldives,Maldives,New Zealand,2,MV,3.202778,73.22068,152
424,201501,PLT,Arrival,Malta,Malta,New Zealand,4,MT,35.937496,14.375416,150
425,201501,PLT,Arrival,Mauritius,Mauritius,New Zealand,2,MU,-20.348404,57.552152,151
426,201501,PLT,Arrival,Mexico,Mexico,New Zealand,6,MX,23.634501,-102.552784,154
427,201501,PLT,Arrival,"Micronesia, Federated States of","Micronesia, Federated States of",New Zealand,3,FM,7.425554,150.550812,70
428,201501,PLT,Arrival,Morocco,Morocco,New Zealand,3,MA,31.791702,-7.09262,135
429,201501,PLT,Arrival,Myanmar,Myanmar,New Zealand,3,MM,21.913965,95.956223,143
430,201501,PLT,Arrival,Nepal,Nepal,New Zealand,30,NP,28.394857,84.124008,165
431,201501,PLT,Arrival,Netherlands,Netherlands,New Zealand,71,NL,52.132633,5.291266,163
432,201501,PLT,Arrival,New Caledonia,New Caledonia,New Zealand,17,NC,-20.904305,165.618042,158
433,201501,PLT,Arrival,Niger,Niger,New Zealand,1,NE,17.607789,8.081666,159
434,201501,PLT,Arrival,Nigeria,Nigeria,New Zealand,6,NG,9.081999,8.675277,161
435,201501,PLT,Arrival,Niue,Niue,New Zealand,2,NU,-19.054445,-169.867233,167
436,201501,PLT,Arrival,Norway,Norway,New Zealand,10,NO,60.472024,8.468946,164
437,201501,PLT,Arrival,Not Stated,Not Stated,New Zealand,434,,,,
438,201501,PLT,Arrival,Oman,Oman,New Zealand,20,OM,21.512583,55.923255,169
439,201501,PLT,Arrival,Pakistan,Pakistan,New Zealand,46,PK,30.375321,69.345116,175
440,201501,PLT,Arrival,Papua New Guinea,Papua New Guinea,New Zealand,29,PG,-6.314993,143.95555,173
441,201501,PLT,Arrival,Peru,Peru,New Zealand,4,PE,-9.189967,-75.015152,171
442,201501,PLT,Arrival,Philippines,Philippines,New Zealand,310,PH,12.879721,121.774017,174
443,201501,PLT,Arrival,Portugal,Portugal,New Zealand,15,PT,39.399872,-8.224454,181
444,201501,PLT,Arrival,Qatar,Qatar,New Zealand,14,QA,25.354826,51.183884,184
445,201501,PLT,Arrival,Romania,Romania,New Zealand,1,RO,45.943161,24.96676,186
446,201501,PLT,Arrival,Russia,Russia,New Zealand,37,RU,61.52401,105.318756,188
447,201501,PLT,Arrival,Rwanda,Rwanda,New Zealand,3,RW,-1.940278,29.873888,189
448,201501,PLT,Arrival,Samoa,Samoa,New Zealand,139,WS,-13.759029,-172.104629,239
449,201501,PLT,Arrival,Samoa,"Samoa, American",New Zealand,8,WS,-13.759029,-172.104629,239
450,201501,PLT,Arrival,Saudi Arabia,Saudi Arabia,New Zealand,73,SA,23.885942,45.079162,190
451,201501,PLT,Arrival,Serbia,Serbia,New Zealand,2,RS,44.016521,21.005859,187
452,201501,PLT,Arrival,Singapore,Singapore,New Zealand,194,SG,1.352083,103.819836,195
453,201501,PLT,Arrival,Slovakia,Slovakia,New Zealand,8,SK,48.669026,19.699024,199
454,201501,PLT,Arrival,Slovenia,Slovenia,New Zealand,5,SI,46.151241,14.995463,197
455,201501,PLT,Arrival,Solomon Islands,Solomon Islands,New Zealand,3,SB,-9.64571,160.156194,191
456,201501,PLT,Arrival,Somalia,Somalia,New Zealand,3,SO,5.152149,46.199616,203
457,201501,PLT,Arrival,South Africa,South Africa,New Zealand,187,ZA,-30.559482,22.937506,243
458,201501,PLT,Arrival,South Sudan,South Sudan,New Zealand,1,,8,30,248
459,201501,PLT,Arrival,Spain,Spain,New Zealand,34,ES,40.463667,-3.74922,65
460,201501,PLT,Arrival,Sri Lanka,Sri Lanka,New Zealand,44,LK,7.873054,80.771797,128
461,201501,PLT,Arrival,St Helena,St Helena,New Zealand,1,SH,-24.143474,-10.030696,196
462,201501,PLT,Arrival,St Vincent and the Grenadines,St Vincent and the Grenadines,New Zealand,1,,,,
463,201501,PLT,Arrival,Sweden,Sweden,New Zealand,63,SE,60.128161,18.643501,194
464,201501,PLT,Arrival,Switzerland,Switzerland,New Zealand,23,CH,46.818188,8.227512,41
465,201501,PLT,Arrival,Taiwan,Taiwan,New Zealand,64,TW,23.69781,120.960515,223
466,201501,PLT,Arrival,Tanzania,Tanzania,New Zealand,8,TZ,-6.369028,34.888822,224
467,201501,PLT,Arrival,Thailand,Thailand,New Zealand,143,TH,15.870032,100.992541,213
468,201501,PLT,Arrival,Timor-Leste,Timor-Leste,New Zealand,6,TL,-8.874217,125.727539,216
469,201501,PLT,Arrival,Tonga,Tonga,New Zealand,93,TO,-21.178986,-175.198242,219
470,201501,PLT,Arrival,Turkey,Turkey,New Zealand,8,TR,38.963745,35.243322,220
471,201501,PLT,Arrival,Turks and Caicos Islands,Turks and Caicos Islands,New Zealand,3,TC,21.694025,-71.797928,209
472,201501,PLT,Arrival,Tuvalu,Tuvalu,New Zealand,1,TV,-7.109535,177.64933,222
473,201501,PLT,Arrival,Uganda,Uganda,New Zealand,4,UG,1.373333,32.290275,226
474,201501,PLT,Arrival,Ukraine,Ukraine,New Zealand,4,UA,48.379433,31.16558,225
475,201501,PLT,Arrival,United Arab Emirates,United Arab Emirates,New Zealand,92,AE,23.424076,53.847818,2
476,201501,PLT,Arrival,United Kingdom,United Kingdom,New Zealand,1379,GB,55.378051,-3.435973,74
477,201501,PLT,Arrival,United States,United States,New Zealand,437,US,37.09024,-95.712891,228
478,201501,PLT,Arrival,Uruguay,Uruguay,New Zealand,1,UY,-32.522779,-55.765835,229
479,201501,PLT,Arrival,Uzbekistan,Uzbekistan,New Zealand,4,UZ,41.377491,64.585262,230
480,201501,PLT,Arrival,Vanuatu,Vanuatu,New Zealand,10,VU,-15.376706,166.959158,237
481,201501,PLT,Arrival,Venezuela,Venezuela,New Zealand,1,VE,6.42375,-66.58973,233
482,201501,PLT,Arrival,Viet Nam,Viet Nam,New Zealand,85,VN,14.058324,108.277199,236
483,201501,PLT,Arrival,Yemen,Yemen,New Zealand,1,YE,15.552727,48.516388,241
484,201501,PLT,Arrival,Zambia,Zambia,New Zealand,3,ZM,-13.133897,27.849332,244
485,201501,PLT,Arrival,Zimbabwe,Zimbabwe,New Zealand,5,ZW,-19.015438,29.154857,245
486,201501,PLT,Departure,Albania,New Zealand,Albania,1,AL,41.153332,20.168331,6
487,201501,PLT,Departure,Angola,New Zealand,Angola,1,AO,-11.202692,17.873887,9
488,201501,PLT,Departure,Antigua and Barbuda,New Zealand,Antigua and Barbuda,4,AG,17.060816,-61.796428,4
489,201501,PLT,Departure,Argentina,New Zealand,Argentina,13,AR,-38.416097,-63.616672,11
490,201501,PLT,Departure,Australia,New Zealand,Australia,3136,AU,-25.274398,133.775136,14
491,201501,PLT,Departure,Austria,New Zealand,Austria,5,AT,47.516231,14.550072,13
492,201501,PLT,Departure,Bahrain,New Zealand,Bahrain,2,BH,25.930414,50.637772,23
493,201501,PLT,Departure,Bangladesh,New Zealand,Bangladesh,1,BD,23.684994,90.356331,19
494,201501,PLT,Departure,Belgium,New Zealand,Belgium,10,BE,50.503887,4.469936,20
495,201501,PLT,Departure,Belize,New Zealand,Belize,1,BZ,17.189877,-88.49765,35
496,201501,PLT,Departure,Bolivia,New Zealand,Bolivia,2,BO,-16.290154,-63.588653,28
497,201501,PLT,Departure,Brazil,New Zealand,Brazil,17,BR,-14.235004,-51.92528,29
498,201501,PLT,Departure,Brunei Darussalam,New Zealand,Brunei Darussalam,13,BN,4.535277,114.727669,27
499,201501,PLT,Departure,Bulgaria,New Zealand,Bulgaria,1,BG,42.733883,25.48583,22
500,201501,PLT,Departure,Cambodia,New Zealand,Cambodia,9,KH,12.565679,104.990963,115
501,201501,PLT,Departure,Canada,New Zealand,Canada,102,CA,56.130366,-106.346771,36
502,201501,PLT,Departure,Chile,New Zealand,Chile,15,CL,-35.675147,-71.542969,44
503,201501,PLT,Departure,China,New Zealand,China,165,CN,35.86166,104.195397,46
504,201501,PLT,Departure,Cook Islands,New Zealand,Cook Islands,39,CK,-21.236736,-159.777671,43
505,201501,PLT,Departure,Costa Rica,New Zealand,Costa Rica,1,CR,9.748917,-83.753428,48
506,201501,PLT,Departure,Cyprus,New Zealand,Cyprus,4,CY,35.126413,33.429859,52
507,201501,PLT,Departure,Czech Republic,New Zealand,Czech Republic,18,CZ,49.817492,15.472962,53
508,201501,PLT,Departure,Denmark,New Zealand,Denmark,15,DK,56.26392,9.501785,56
509,201501,PLT,Departure,Egypt,New Zealand,Egypt,3,EG,26.820553,30.802498,62
510,201501,PLT,Departure,Estonia,New Zealand,Estonia,1,EE,58.595272,25.013607,61
511,201501,PLT,Departure,Ethiopia,New Zealand,Ethiopia,1,ET,9.145,40.489673,66
512,201501,PLT,Departure,Fiji,New Zealand,Fiji,37,FJ,-16.578193,179.414413,68
513,201501,PLT,Departure,Finland,New Zealand,Finland,2,FI,61.92411,25.748151,67
514,201501,PLT,Departure,Former Yugoslav Republic of Macedonia (FYROM),New Zealand,Former Yugoslav Republic of Macedonia (FYROM),1,,,,
515,201501,PLT,Departure,France,New Zealand,France,51,FR,46.227638,2.213749,72
516,201501,PLT,Departure,French Polynesia,New Zealand,French Polynesia,2,PF,-17.679742,-149.406843,172
517,201501,PLT,Departure,Germany,New Zealand,Germany,70,DE,51.165691,10.451526,54
518,201501,PLT,Departure,Ghana,New Zealand,Ghana,5,GH,7.946527,-1.023194,79
519,201501,PLT,Departure,Greece,New Zealand,Greece,1,GR,39.074208,21.824312,86
520,201501,PLT,Departure,Hong Kong,New Zealand,Hong Kong,23,HK,22.396428,114.109497,93
521,201501,PLT,Departure,Hungary,New Zealand,Hungary,7,HU,47.162494,19.503304,98
522,201501,PLT,Departure,Iceland,New Zealand,Iceland,1,IS,64.963051,-19.020835,107
523,201501,PLT,Departure,India,New Zealand,India,86,IN,20.593684,78.96288,103
524,201501,PLT,Departure,Indonesia,New Zealand,Indonesia,19,ID,-0.789275,113.921327,99
525,201501,PLT,Departure,Iran,New Zealand,Iran,2,IR,32.427908,53.688046,106
526,201501,PLT,Departure,Iraq,New Zealand,Iraq,2,IQ,33.223191,43.679291,105
527,201501,PLT,Departure,Ireland,New Zealand,Ireland,73,IE,53.41291,-8.24389,100
528,201501,PLT,Departure,Israel,New Zealand,Israel,3,IL,31.046051,34.851612,101
529,201501,PLT,Departure,Italy,New Zealand,Italy,19,IT,41.87194,12.56738,108
530,201501,PLT,Departure,Japan,New Zealand,Japan,52,JP,36.204824,138.252924,112
531,201501,PLT,Departure,Jordan,New Zealand,Jordan,3,JO,30.585164,36.238414,111
532,201501,PLT,Departure,Kenya,New Zealand,Kenya,1,KE,-0.023559,37.906193,113
533,201501,PLT,Departure,"Korea, Republic of",New Zealand,"Korea, Republic of",92,KP,40.339852,127.510093,119
534,201501,PLT,Departure,Kuwait,New Zealand,Kuwait,3,KW,29.31166,47.481766,121
535,201501,PLT,Departure,Laos,New Zealand,Laos,3,LA,19.85627,102.495496,124
536,201501,PLT,Departure,Latvia,New Zealand,Latvia,1,LV,56.879635,24.603189,133
537,201501,PLT,Departure,Lebanon,New Zealand,Lebanon,1,LB,33.854721,35.862285,125
538,201501,PLT,Departure,Luxembourg,New Zealand,Luxembourg,1,LU,49.815273,6.129583,132
539,201501,PLT,Departure,Malawi,New Zealand,Malawi,1,MW,-13.254308,34.301525,153
540,201501,PLT,Departure,Malaysia,New Zealand,Malaysia,52,MY,4.210484,101.975766,155
541,201501,PLT,Departure,Maldives,New Zealand,Maldives,3,MV,3.202778,73.22068,152
542,201501,PLT,Departure,Mexico,New Zealand,Mexico,5,MX,23.634501,-102.552784,154
543,201501,PLT,Departure,Mongolia,New Zealand,Mongolia,1,MN,46.862496,103.846656,144
544,201501,PLT,Departure,Nepal,New Zealand,Nepal,2,NP,28.394857,84.124008,165
545,201501,PLT,Departure,Netherlands,New Zealand,Netherlands,31,NL,52.132633,5.291266,163
546,201501,PLT,Departure,New Caledonia,New Zealand,New Caledonia,7,NC,-20.904305,165.618042,158
547,201501,PLT,Departure,Niue,New Zealand,Niue,7,NU,-19.054445,-169.867233,167
548,201501,PLT,Departure,Norway,New Zealand,Norway,4,NO,60.472024,8.468946,164
549,201501,PLT,Departure,Not Stated,New Zealand,Not Stated,98,,,,
550,201501,PLT,Departure,Pakistan,New Zealand,Pakistan,2,PK,30.375321,69.345116,175
551,201501,PLT,Departure,Panama,New Zealand,Panama,3,PA,8.537981,-80.782127,170
552,201501,PLT,Departure,Papua New Guinea,New Zealand,Papua New Guinea,14,PG,-6.314993,143.95555,173
553,201501,PLT,Departure,Peru,New Zealand,Peru,1,PE,-9.189967,-75.015152,171
554,201501,PLT,Departure,Philippines,New Zealand,Philippines,25,PH,12.879721,121.774017,174
555,201501,PLT,Departure,Poland,New Zealand,Poland,7,PL,51.919438,19.145136,176
556,201501,PLT,Departure,Qatar,New Zealand,Qatar,13,QA,25.354826,51.183884,184
557,201501,PLT,Departure,Romania,New Zealand,Romania,4,RO,45.943161,24.96676,186
558,201501,PLT,Departure,Russia,New Zealand,Russia,7,RU,61.52401,105.318756,188
559,201501,PLT,Departure,Samoa,New Zealand,Samoa,55,WS,-13.759029,-172.104629,239
560,201501,PLT,Departure,Saudi Arabia,New Zealand,Saudi Arabia,16,SA,23.885942,45.079162,190
561,201501,PLT,Departure,Serbia,New Zealand,Serbia,1,RS,44.016521,21.005859,187
562,201501,PLT,Departure,Sierra Leone,New Zealand,Sierra Leone,2,SL,8.460555,-11.779889,200
563,201501,PLT,Departure,Singapore,New Zealand,Singapore,38,SG,1.352083,103.819836,195
564,201501,PLT,Departure,Slovakia,New Zealand,Slovakia,1,SK,48.669026,19.699024,199
565,201501,PLT,Departure,Slovenia,New Zealand,Slovenia,1,SI,46.151241,14.995463,197
566,201501,PLT,Departure,Solomon Islands,New Zealand,Solomon Islands,11,SB,-9.64571,160.156194,191
567,201501,PLT,Departure,South Africa,New Zealand,South Africa,24,ZA,-30.559482,22.937506,243
568,201501,PLT,Departure,Spain,New Zealand,Spain,14,ES,40.463667,-3.74922,65
569,201501,PLT,Departure,Sri Lanka,New Zealand,Sri Lanka,4,LK,7.873054,80.771797,128
570,201501,PLT,Departure,Sweden,New Zealand,Sweden,15,SE,60.128161,18.643501,194
571,201501,PLT,Departure,Switzerland,New Zealand,Switzerland,21,CH,46.818188,8.227512,41
572,201501,PLT,Departure,Taiwan,New Zealand,Taiwan,35,TW,23.69781,120.960515,223
573,201501,PLT,Departure,Thailand,New Zealand,Thailand,29,TH,15.870032,100.992541,213
574,201501,PLT,Departure,Timor-Leste,New Zealand,Timor-Leste,5,TL,-8.874217,125.727539,216
575,201501,PLT,Departure,Tokelau,New Zealand,Tokelau,3,TK,-8.967363,-171.855881,215
576,201501,PLT,Departure,Tonga,New Zealand,Tonga,41,TO,-21.178986,-175.198242,219
577,201501,PLT,Departure,Turkey,New Zealand,Turkey,3,TR,38.963745,35.243322,220
578,201501,PLT,Departure,United Arab Emirates,New Zealand,United Arab Emirates,33,AE,23.424076,53.847818,2
579,201501,PLT,Departure,United Kingdom,New Zealand,United Kingdom,638,GB,55.378051,-3.435973,74
580,201501,PLT,Departure,United States,New Zealand,United States,236,US,37.09024,-95.712891,228
581,201501,PLT,Departure,Uruguay,New Zealand,Uruguay,3,UY,-32.522779,-55.765835,229
582,201501,PLT,Departure,Vanuatu,New Zealand,Vanuatu,10,VU,-15.376706,166.959158,237
583,201501,PLT,Departure,Venezuela,New Zealand,Venezuela,1,VE,6.42375,-66.58973,233
584,201501,PLT,Departure,Viet Nam,New Zealand,Viet Nam,24,VN,14.058324,108.277199,236
585,201501,PLT,Departure,Zambia,New Zealand,Zambia,6,ZM,-13.133897,27.849332,244
586,201502,Overseas visitor,Arrival,Afghanistan,Afghanistan,New Zealand,32,AF,33.93911,67.709953,3
587,201502,Overseas visitor,Arrival,Andorra,Andorra,New Zealand,16,AD,42.546245,1.601554,1
588,201502,Overseas visitor,Arrival,Antigua and Barbuda,Antigua and Barbuda,New Zealand,16,AG,17.060816,-61.796428,4
589,201502,Overseas visitor,Arrival,Argentina,Argentina,New Zealand,352,AR,-38.416097,-63.616672,11
590,201502,Overseas visitor,Arrival,Australia,Australia,New Zealand,107264,AU,-25.274398,133.775136,14
591,201502,Overseas visitor,Arrival,Austria,Austria,New Zealand,1024,AT,47.516231,14.550072,13
592,201502,Overseas visitor,Arrival,Bahrain,Bahrain,New Zealand,32,BH,25.930414,50.637772,23
593,201502,Overseas visitor,Arrival,Bangladesh,Bangladesh,New Zealand,128,BD,23.684994,90.356331,19
594,201502,Overseas visitor,Arrival,Belarus,Belarus,New Zealand,32,BY,53.709807,27.953389,34
595,201502,Overseas visitor,Arrival,Belgium,Belgium,New Zealand,880,BE,50.503887,4.469936,20
596,201502,Overseas visitor,Arrival,Bermuda,Bermuda,New Zealand,32,BM,32.321384,-64.75737,26
597,201502,Overseas visitor,Arrival,Botswana,Botswana,New Zealand,16,BW,-22.328474,24.684866,33
598,201502,Overseas visitor,Arrival,Brazil,Brazil,New Zealand,1184,BR,-14.235004,-51.92528,29
599,201502,Overseas visitor,Arrival,Brunei Darussalam,Brunei Darussalam,New Zealand,64,BN,4.535277,114.727669,27
600,201502,Overseas visitor,Arrival,Bulgaria,Bulgaria,New Zealand,80,BG,42.733883,25.48583,22
601,201502,Overseas visitor,Arrival,Cambodia,Cambodia,New Zealand,64,KH,12.565679,104.990963,115
602,201502,Overseas visitor,Arrival,Canada,Canada,New Zealand,8768,CA,56.130366,-106.346771,36
603,201502,Overseas visitor,Arrival,Cayman Islands,Cayman Islands,New Zealand,32,KY,19.513469,-80.566956,122
604,201502,Overseas visitor,Arrival,Chile,Chile,New Zealand,752,CL,-35.675147,-71.542969,44
605,201502,Overseas visitor,Arrival,China,China,New Zealand,55968,CN,35.86166,104.195397,46
606,201502,Overseas visitor,Arrival,Colombia,Colombia,New Zealand,96,CO,4.570868,-74.297333,47
607,201502,Overseas visitor,Arrival,Cook Islands,Cook Islands,New Zealand,816,CK,-21.236736,-159.777671,43
608,201502,Overseas visitor,Arrival,Costa Rica,Costa Rica,New Zealand,48,CR,9.748917,-83.753428,48
609,201502,Overseas visitor,Arrival,Croatia,Croatia,New Zealand,80,HR,45.1,15.2,96
610,201502,Overseas visitor,Arrival,Cyprus,Cyprus,New Zealand,64,CY,35.126413,33.429859,52
611,201502,Overseas visitor,Arrival,Czech Republic,Czech Republic,New Zealand,592,CZ,49.817492,15.472962,53
612,201502,Overseas visitor,Arrival,Denmark,Denmark,New Zealand,1776,DK,56.26392,9.501785,56
613,201502,Overseas visitor,Arrival,Ecuador,Ecuador,New Zealand,32,EC,-1.831239,-78.183406,60
614,201502,Overseas visitor,Arrival,Egypt,Egypt,New Zealand,48,EG,26.820553,30.802498,62
615,201502,Overseas visitor,Arrival,Estonia,Estonia,New Zealand,64,EE,58.595272,25.013607,61
616,201502,Overseas visitor,Arrival,Ethiopia,Ethiopia,New Zealand,16,ET,9.145,40.489673,66
617,201502,Overseas visitor,Arrival,Faeroe Islands,Faeroe Islands,New Zealand,16,FO,61.892635,-6.911806,71
618,201502,Overseas visitor,Arrival,Fiji,Fiji,New Zealand,2384,FJ,-16.578193,179.414413,68
619,201502,Overseas visitor,Arrival,Finland,Finland,New Zealand,528,FI,61.92411,25.748151,67
620,201502,Overseas visitor,Arrival,Former Yugoslav Republic of Macedonia (FYROM),Former Yugoslav Republic of Macedonia (FYROM),New Zealand,16,,,,
621,201502,Overseas visitor,Arrival,France,France,New Zealand,4496,FR,46.227638,2.213749,72
622,201502,Overseas visitor,Arrival,French Guiana,French Guiana,New Zealand,16,GF,3.933889,-53.125782,77
623,201502,Overseas visitor,Arrival,French Polynesia,French Polynesia,New Zealand,1664,PF,-17.679742,-149.406843,172
624,201502,Overseas visitor,Arrival,Gabon,Gabon,New Zealand,16,GA,-0.803689,11.609444,73
625,201502,Overseas visitor,Arrival,Gaza Strip/Palestine/West Bank,Gaza Strip/Palestine/West Bank,New Zealand,16,GZ,31.354676,34.308825,92
626,201502,Overseas visitor,Arrival,Germany,Germany,New Zealand,13008,DE,51.165691,10.451526,54
627,201502,Overseas visitor,Arrival,Ghana,Ghana,New Zealand,16,GH,7.946527,-1.023194,79
628,201502,Overseas visitor,Arrival,Gibraltar,Gibraltar,New Zealand,32,GI,36.137741,-5.345374,80
629,201502,Overseas visitor,Arrival,Greece,Greece,New Zealand,64,GR,39.074208,21.824312,86
630,201502,Overseas visitor,Arrival,Guam,Guam,New Zealand,32,GU,13.444304,144.793731,89
631,201502,Overseas visitor,Arrival,Guatemala,Guatemala,New Zealand,16,GT,15.783471,-90.230759,88
632,201502,Overseas visitor,Arrival,Hong Kong,Hong Kong,New Zealand,4064,HK,22.396428,114.109497,93
633,201502,Overseas visitor,Arrival,Hungary,Hungary,New Zealand,288,HU,47.162494,19.503304,98
634,201502,Overseas visitor,Arrival,Iceland,Iceland,New Zealand,32,IS,64.963051,-19.020835,107
635,201502,Overseas visitor,Arrival,India,India,New Zealand,4352,IN,20.593684,78.96288,103
636,201502,Overseas visitor,Arrival,Indonesia,Indonesia,New Zealand,720,ID,-0.789275,113.921327,99
637,201502,Overseas visitor,Arrival,Iran,Iran,New Zealand,32,IR,32.427908,53.688046,106
638,201502,Overseas visitor,Arrival,Iraq,Iraq,New Zealand,32,IQ,33.223191,43.679291,105
639,201502,Overseas visitor,Arrival,Ireland,Ireland,New Zealand,1152,IE,53.41291,-8.24389,100
640,201502,Overseas visitor,Arrival,Israel,Israel,New Zealand,864,IL,31.046051,34.851612,101
641,201502,Overseas visitor,Arrival,Italy,Italy,New Zealand,896,IT,41.87194,12.56738,108
642,201502,Overseas visitor,Arrival,Jamaica,Jamaica,New Zealand,32,JM,18.109581,-77.297508,110
643,201502,Overseas visitor,Arrival,Japan,Japan,New Zealand,9488,JP,36.204824,138.252924,112
644,201502,Overseas visitor,Arrival,Kazakhstan,Kazakhstan,New Zealand,16,KZ,48.019573,66.923684,123
645,201502,Overseas visitor,Arrival,Kenya,Kenya,New Zealand,80,KE,-0.023559,37.906193,113
646,201502,Overseas visitor,Arrival,Kiribati,Kiribati,New Zealand,80,KI,-3.370417,-168.734039,116
647,201502,Overseas visitor,Arrival,"Korea, Republic of","Korea, Republic of",New Zealand,6000,KP,40.339852,127.510093,119
648,201502,Overseas visitor,Arrival,Kosovo,Kosovo,New Zealand,16,XK,42.602636,20.902977,240
649,201502,Overseas visitor,Arrival,Kuwait,Kuwait,New Zealand,16,KW,29.31166,47.481766,121
650,201502,Overseas visitor,Arrival,Laos,Laos,New Zealand,32,LA,19.85627,102.495496,124
651,201502,Overseas visitor,Arrival,Latvia,Latvia,New Zealand,96,LV,56.879635,24.603189,133
652,201502,Overseas visitor,Arrival,Lebanon,Lebanon,New Zealand,16,LB,33.854721,35.862285,125
653,201502,Overseas visitor,Arrival,Lithuania,Lithuania,New Zealand,32,LT,55.169438,23.881275,131
654,201502,Overseas visitor,Arrival,Luxembourg,Luxembourg,New Zealand,80,LU,49.815273,6.129583,132
655,201502,Overseas visitor,Arrival,Macau,Macau,New Zealand,160,MO,22.198745,113.543873,145
656,201502,Overseas visitor,Arrival,Madagascar,Madagascar,New Zealand,16,MG,-18.766947,46.869107,139
657,201502,Overseas visitor,Arrival,Malaysia,Malaysia,New Zealand,2176,MY,4.210484,101.975766,155
658,201502,Overseas visitor,Arrival,Maldives,Maldives,New Zealand,16,MV,3.202778,73.22068,152
659,201502,Overseas visitor,Arrival,Mali,Mali,New Zealand,16,ML,17.570692,-3.996166,142
660,201502,Overseas visitor,Arrival,Malta,Malta,New Zealand,48,MT,35.937496,14.375416,150
661,201502,Overseas visitor,Arrival,Mauritius,Mauritius,New Zealand,32,MU,-20.348404,57.552152,151
662,201502,Overseas visitor,Arrival,Mayotte,Mayotte,New Zealand,16,YT,-12.8275,45.166244,242
663,201502,Overseas visitor,Arrival,Mexico,Mexico,New Zealand,288,MX,23.634501,-102.552784,154
664,201502,Overseas visitor,Arrival,"Micronesia, Federated States of","Micronesia, Federated States of",New Zealand,16,FM,7.425554,150.550812,70
665,201502,Overseas visitor,Arrival,Monaco,Monaco,New Zealand,16,MC,43.750298,7.412841,136
666,201502,Overseas visitor,Arrival,Mongolia,Mongolia,New Zealand,16,MN,46.862496,103.846656,144
667,201502,Overseas visitor,Arrival,Morocco,Morocco,New Zealand,16,MA,31.791702,-7.09262,135
668,201502,Overseas visitor,Arrival,Mozambique,Mozambique,New Zealand,16,MZ,-18.665695,35.529562,156
669,201502,Overseas visitor,Arrival,Myanmar,Myanmar,New Zealand,48,MM,21.913965,95.956223,143
670,201502,Overseas visitor,Arrival,Nepal,Nepal,New Zealand,16,NP,28.394857,84.124008,165
671,201502,Overseas visitor,Arrival,Netherlands,Netherlands,New Zealand,3360,NL,52.132633,5.291266,163
672,201502,Overseas visitor,Arrival,New Caledonia,New Caledonia,New Zealand,1264,NC,-20.904305,165.618042,158
673,201502,Overseas visitor,Arrival,New Zealand,New Zealand,New Zealand,1648,NZ,-40.900557,174.885971,168
674,201502,Overseas visitor,Arrival,Nigeria,Nigeria,New Zealand,16,NG,9.081999,8.675277,161
675,201502,Overseas visitor,Arrival,Niue,Niue,New Zealand,64,NU,-19.054445,-169.867233,167
676,201502,Overseas visitor,Arrival,Norfolk Island,Norfolk Island,New Zealand,64,NF,-29.040835,167.954712,160
677,201502,Overseas visitor,Arrival,Norway,Norway,New Zealand,688,NO,60.472024,8.468946,164
678,201502,Overseas visitor,Arrival,Not Stated,Not Stated,New Zealand,4960,,,,
679,201502,Overseas visitor,Arrival,Oman,Oman,New Zealand,64,OM,21.512583,55.923255,169
680,201502,Overseas visitor,Arrival,Pakistan,Pakistan,New Zealand,128,PK,30.375321,69.345116,175
681,201502,Overseas visitor,Arrival,Panama,Panama,New Zealand,32,PA,8.537981,-80.782127,170
682,201502,Overseas visitor,Arrival,Papua New Guinea,Papua New Guinea,New Zealand,304,PG,-6.314993,143.95555,173
683,201502,Overseas visitor,Arrival,Peru,Peru,New Zealand,80,PE,-9.189967,-75.015152,171
684,201502,Overseas visitor,Arrival,Philippines,Philippines,New Zealand,1136,PH,12.879721,121.774017,174
685,201502,Overseas visitor,Arrival,Poland,Poland,New Zealand,608,PL,51.919438,19.145136,176
686,201502,Overseas visitor,Arrival,Portugal,Portugal,New Zealand,144,PT,39.399872,-8.224454,181
687,201502,Overseas visitor,Arrival,Puerto Rico,Puerto Rico,New Zealand,32,PR,18.220833,-66.590149,179
688,201502,Overseas visitor,Arrival,Qatar,Qatar,New Zealand,128,QA,25.354826,51.183884,184
689,201502,Overseas visitor,Arrival,Reunion,Reunion,New Zealand,32,RE,-21.115141,55.536384,185
690,201502,Overseas visitor,Arrival,Romania,Romania,New Zealand,96,RO,45.943161,24.96676,186
691,201502,Overseas visitor,Arrival,Russia,Russia,New Zealand,528,RU,61.52401,105.318756,188
692,201502,Overseas visitor,Arrival,Samoa,Samoa,New Zealand,1728,WS,-13.759029,-172.104629,239
693,201502,Overseas visitor,Arrival,Samoa,"Samoa, American",New Zealand,112,WS,-13.759029,-172.104629,239
694,201502,Overseas visitor,Arrival,Saudi Arabia,Saudi Arabia,New Zealand,272,SA,23.885942,45.079162,190
695,201502,Overseas visitor,Arrival,Senegal,Senegal,New Zealand,16,SN,14.497401,-14.452362,202
696,201502,Overseas visitor,Arrival,Serbia,Serbia,New Zealand,32,RS,44.016521,21.005859,187
697,201502,Overseas visitor,Arrival,Seychelles,Seychelles,New Zealand,16,SC,-4.679574,55.491977,192
698,201502,Overseas visitor,Arrival,Singapore,Singapore,New Zealand,3520,SG,1.352083,103.819836,195
699,201502,Overseas visitor,Arrival,Slovakia,Slovakia,New Zealand,144,SK,48.669026,19.699024,199
700,201502,Overseas visitor,Arrival,Slovenia,Slovenia,New Zealand,80,SI,46.151241,14.995463,197
701,201502,Overseas visitor,Arrival,Solomon Islands,Solomon Islands,New Zealand,128,SB,-9.64571,160.156194,191
702,201502,Overseas visitor,Arrival,South Africa,South Africa,New Zealand,1600,ZA,-30.559482,22.937506,243
703,201502,Overseas visitor,Arrival,Spain,Spain,New Zealand,864,ES,40.463667,-3.74922,65
704,201502,Overseas visitor,Arrival,Sri Lanka,Sri Lanka,New Zealand,448,LK,7.873054,80.771797,128
705,201502,Overseas visitor,Arrival,Sudan,Sudan,New Zealand,16,SD,12.862807,30.217636,193
706,201502,Overseas visitor,Arrival,Sweden,Sweden,New Zealand,2192,SE,60.128161,18.643501,194
707,201502,Overseas visitor,Arrival,Switzerland,Switzerland,New Zealand,2496,CH,46.818188,8.227512,41
708,201502,Overseas visitor,Arrival,Taiwan,Taiwan,New Zealand,4800,TW,23.69781,120.960515,223
709,201502,Overseas visitor,Arrival,Tanzania,Tanzania,New Zealand,16,TZ,-6.369028,34.888822,224
710,201502,Overseas visitor,Arrival,Thailand,Thailand,New Zealand,1040,TH,15.870032,100.992541,213
711,201502,Overseas visitor,Arrival,Timor-Leste,Timor-Leste,New Zealand,16,TL,-8.874217,125.727539,216
712,201502,Overseas visitor,Arrival,Tonga,Tonga,New Zealand,1504,TO,-21.178986,-175.198242,219
713,201502,Overseas visitor,Arrival,Trinidad and Tobago,Trinidad and Tobago,New Zealand,16,TT,10.691803,-61.222503,221
714,201502,Overseas visitor,Arrival,Turkey,Turkey,New Zealand,160,TR,38.963745,35.243322,220
715,201502,Overseas visitor,Arrival,Tuvalu,Tuvalu,New Zealand,64,TV,-7.109535,177.64933,222
716,201502,Overseas visitor,Arrival,Uganda,Uganda,New Zealand,16,UG,1.373333,32.290275,226
717,201502,Overseas visitor,Arrival,Ukraine,Ukraine,New Zealand,80,UA,48.379433,31.16558,225
718,201502,Overseas visitor,Arrival,United Arab Emirates,United Arab Emirates,New Zealand,736,AE,23.424076,53.847818,2
719,201502,Overseas visitor,Arrival,United Kingdom,United Kingdom,New Zealand,33472,GB,55.378051,-3.435973,74
720,201502,Overseas visitor,Arrival,United States,United States,New Zealand,36672,US,37.09024,-95.712891,228
721,201502,Overseas visitor,Arrival,Uruguay,Uruguay,New Zealand,128,UY,-32.522779,-55.765835,229
722,201502,Overseas visitor,Arrival,Vanuatu,Vanuatu,New Zealand,752,VU,-15.376706,166.959158,237
723,201502,Overseas visitor,Arrival,Venezuela,Venezuela,New Zealand,16,VE,6.42375,-66.58973,233
724,201502,Overseas visitor,Arrival,Viet Nam,Viet Nam,New Zealand,512,VN,14.058324,108.277199,236
725,201502,Overseas visitor,Arrival,Zimbabwe,Zimbabwe,New Zealand,64,ZW,-19.015438,29.154857,245
726,201502,Overseas visitor,Departure,Afghanistan,New Zealand,Afghanistan,26,AF,33.93911,67.709953,3
727,201502,Overseas visitor,Departure,Argentina,New Zealand,Argentina,416,AR,-38.416097,-63.616672,11
728,201502,Overseas visitor,Departure,Australia,New Zealand,Australia,101894,AU,-25.274398,133.775136,14
729,201502,Overseas visitor,Departure,Austria,New Zealand,Austria,1222,AT,47.516231,14.550072,13
730,201502,Overseas visitor,Departure,Azerbaijan,New Zealand,Azerbaijan,26,AZ,40.143105,47.576927,16
731,201502,Overseas visitor,Departure,Bahrain,New Zealand,Bahrain,26,BH,25.930414,50.637772,23
732,201502,Overseas visitor,Departure,Bangladesh,New Zealand,Bangladesh,104,BD,23.684994,90.356331,19
733,201502,Overseas visitor,Departure,Belarus,New Zealand,Belarus,26,BY,53.709807,27.953389,34
734,201502,Overseas visitor,Departure,Belgium,New Zealand,Belgium,1196,BE,50.503887,4.469936,20
735,201502,Overseas visitor,Departure,Bermuda,New Zealand,Bermuda,26,BM,32.321384,-64.75737,26
736,201502,Overseas visitor,Departure,Brazil,New Zealand,Brazil,1040,BR,-14.235004,-51.92528,29
737,201502,Overseas visitor,Departure,Bulgaria,New Zealand,Bulgaria,78,BG,42.733883,25.48583,22
738,201502,Overseas visitor,Departure,Cambodia,New Zealand,Cambodia,26,KH,12.565679,104.990963,115
739,201502,Overseas visitor,Departure,Canada,New Zealand,Canada,7592,CA,56.130366,-106.346771,36
740,201502,Overseas visitor,Departure,Chile,New Zealand,Chile,624,CL,-35.675147,-71.542969,44
741,201502,Overseas visitor,Departure,China,New Zealand,China,48308,CN,35.86166,104.195397,46
742,201502,Overseas visitor,Departure,Colombia,New Zealand,Colombia,52,CO,4.570868,-74.297333,47
743,201502,Overseas visitor,Departure,Cook Islands,New Zealand,Cook Islands,832,CK,-21.236736,-159.777671,43
744,201502,Overseas visitor,Departure,Costa Rica,New Zealand,Costa Rica,26,CR,9.748917,-83.753428,48
745,201502,Overseas visitor,Departure,Croatia,New Zealand,Croatia,78,HR,45.1,15.2,96
746,201502,Overseas visitor,Departure,Cyprus,New Zealand,Cyprus,78,CY,35.126413,33.429859,52
747,201502,Overseas visitor,Departure,Czech Republic,New Zealand,Czech Republic,546,CZ,49.817492,15.472962,53
748,201502,Overseas visitor,Departure,Denmark,New Zealand,Denmark,1612,DK,56.26392,9.501785,56
749,201502,Overseas visitor,Departure,Ecuador,New Zealand,Ecuador,26,EC,-1.831239,-78.183406,60
750,201502,Overseas visitor,Departure,Egypt,New Zealand,Egypt,52,EG,26.820553,30.802498,62
751,201502,Overseas visitor,Departure,El Salvador,New Zealand,El Salvador,26,SV,13.794185,-88.89653,206
752,201502,Overseas visitor,Departure,Estonia,New Zealand,Estonia,26,EE,58.595272,25.013607,61
753,201502,Overseas visitor,Departure,Ethiopia,New Zealand,Ethiopia,26,ET,9.145,40.489673,66
754,201502,Overseas visitor,Departure,Fiji,New Zealand,Fiji,2028,FJ,-16.578193,179.414413,68
755,201502,Overseas visitor,Departure,Finland,New Zealand,Finland,624,FI,61.92411,25.748151,67
756,201502,Overseas visitor,Departure,Former Yugoslav Republic of Macedonia (FYROM),New Zealand,Former Yugoslav Republic of Macedonia (FYROM),26,,,,
757,201502,Overseas visitor,Departure,France,New Zealand,France,3588,FR,46.227638,2.213749,72
758,201502,Overseas visitor,Departure,French Polynesia,New Zealand,French Polynesia,1274,PF,-17.679742,-149.406843,172
759,201502,Overseas visitor,Departure,Germany,New Zealand,Germany,10764,DE,51.165691,10.451526,54
760,201502,Overseas visitor,Departure,Gibraltar,New Zealand,Gibraltar,26,GI,36.137741,-5.345374,80
761,201502,Overseas visitor,Departure,Greece,New Zealand,Greece,52,GR,39.074208,21.824312,86
762,201502,Overseas visitor,Departure,Greenland,New Zealand,Greenland,26,GL,71.706936,-42.604303,81
763,201502,Overseas visitor,Departure,Guam,New Zealand,Guam,104,GU,13.444304,144.793731,89
764,201502,Overseas visitor,Departure,Guatemala,New Zealand,Guatemala,26,GT,15.783471,-90.230759,88
765,201502,Overseas visitor,Departure,Hong Kong,New Zealand,Hong Kong,3432,HK,22.396428,114.109497,93
766,201502,Overseas visitor,Departure,Hungary,New Zealand,Hungary,286,HU,47.162494,19.503304,98
767,201502,Overseas visitor,Departure,Iceland,New Zealand,Iceland,26,IS,64.963051,-19.020835,107
768,201502,Overseas visitor,Departure,India,New Zealand,India,3952,IN,20.593684,78.96288,103
769,201502,Overseas visitor,Departure,Indonesia,New Zealand,Indonesia,806,ID,-0.789275,113.921327,99
770,201502,Overseas visitor,Departure,Iran,New Zealand,Iran,26,IR,32.427908,53.688046,106
771,201502,Overseas visitor,Departure,Ireland,New Zealand,Ireland,1482,IE,53.41291,-8.24389,100
772,201502,Overseas visitor,Departure,Israel,New Zealand,Israel,754,IL,31.046051,34.851612,101
773,201502,Overseas visitor,Departure,Italy,New Zealand,Italy,1040,IT,41.87194,12.56738,108
774,201502,Overseas visitor,Departure,Jamaica,New Zealand,Jamaica,52,JM,18.109581,-77.297508,110
775,201502,Overseas visitor,Departure,Japan,New Zealand,Japan,8008,JP,36.204824,138.252924,112
776,201502,Overseas visitor,Departure,Kiribati,New Zealand,Kiribati,78,KI,-3.370417,-168.734039,116
777,201502,Overseas visitor,Departure,"Korea, Republic of",New Zealand,"Korea, Republic of",8112,KP,40.339852,127.510093,119
778,201502,Overseas visitor,Departure,Laos,New Zealand,Laos,104,LA,19.85627,102.495496,124
779,201502,Overseas visitor,Departure,Latvia,New Zealand,Latvia,26,LV,56.879635,24.603189,133
780,201502,Overseas visitor,Departure,Lebanon,New Zealand,Lebanon,26,LB,33.854721,35.862285,125
781,201502,Overseas visitor,Departure,Liechtenstein,New Zealand,Liechtenstein,26,LI,47.166,9.555373,127
782,201502,Overseas visitor,Departure,Lithuania,New Zealand,Lithuania,78,LT,55.169438,23.881275,131
783,201502,Overseas visitor,Departure,Luxembourg,New Zealand,Luxembourg,130,LU,49.815273,6.129583,132
784,201502,Overseas visitor,Departure,Macau,New Zealand,Macau,104,MO,22.198745,113.543873,145
785,201502,Overseas visitor,Departure,Madagascar,New Zealand,Madagascar,26,MG,-18.766947,46.869107,139
786,201502,Overseas visitor,Departure,Malaysia,New Zealand,Malaysia,1768,MY,4.210484,101.975766,155
787,201502,Overseas visitor,Departure,Maldives,New Zealand,Maldives,26,MV,3.202778,73.22068,152
788,201502,Overseas visitor,Departure,Malta,New Zealand,Malta,26,MT,35.937496,14.375416,150
789,201502,Overseas visitor,Departure,Mexico,New Zealand,Mexico,208,MX,23.634501,-102.552784,154
790,201502,Overseas visitor,Departure,Montserrat,New Zealand,Montserrat,26,MS,16.742498,-62.187366,149
791,201502,Overseas visitor,Departure,Morocco,New Zealand,Morocco,26,MA,31.791702,-7.09262,135
792,201502,Overseas visitor,Departure,Mozambique,New Zealand,Mozambique,26,MZ,-18.665695,35.529562,156
793,201502,Overseas visitor,Departure,Myanmar,New Zealand,Myanmar,26,MM,21.913965,95.956223,143
794,201502,Overseas visitor,Departure,Nepal,New Zealand,Nepal,52,NP,28.394857,84.124008,165
795,201502,Overseas visitor,Departure,Netherlands,New Zealand,Netherlands,3276,NL,52.132633,5.291266,163
796,201502,Overseas visitor,Departure,New Caledonia,New Zealand,New Caledonia,2080,NC,-20.904305,165.618042,158
797,201502,Overseas visitor,Departure,New Zealand,New Zealand,New Zealand,1586,NZ,-40.900557,174.885971,168
798,201502,Overseas visitor,Departure,Niue,New Zealand,Niue,104,NU,-19.054445,-169.867233,167
799,201502,Overseas visitor,Departure,Norway,New Zealand,Norway,546,NO,60.472024,8.468946,164
800,201502,Overseas visitor,Departure,Not Stated,New Zealand,Not Stated,12636,,,,
801,201502,Overseas visitor,Departure,Oman,New Zealand,Oman,26,OM,21.512583,55.923255,169
802,201502,Overseas visitor,Departure,Pakistan,New Zealand,Pakistan,182,PK,30.375321,69.345116,175
803,201502,Overseas visitor,Departure,Panama,New Zealand,Panama,26,PA,8.537981,-80.782127,170
804,201502,Overseas visitor,Departure,Papua New Guinea,New Zealand,Papua New Guinea,234,PG,-6.314993,143.95555,173
805,201502,Overseas visitor,Departure,Paraguay,New Zealand,Paraguay,26,PY,-23.442503,-58.443832,183
806,201502,Overseas visitor,Departure,Peru,New Zealand,Peru,104,PE,-9.189967,-75.015152,171
807,201502,Overseas visitor,Departure,Philippines,New Zealand,Philippines,754,PH,12.879721,121.774017,174
808,201502,Overseas visitor,Departure,Poland,New Zealand,Poland,676,PL,51.919438,19.145136,176
809,201502,Overseas visitor,Departure,Portugal,New Zealand,Portugal,78,PT,39.399872,-8.224454,181
810,201502,Overseas visitor,Departure,Puerto Rico,New Zealand,Puerto Rico,52,PR,18.220833,-66.590149,179
811,201502,Overseas visitor,Departure,Qatar,New Zealand,Qatar,208,QA,25.354826,51.183884,184
812,201502,Overseas visitor,Departure,Reunion,New Zealand,Reunion,78,RE,-21.115141,55.536384,185
813,201502,Overseas visitor,Departure,Romania,New Zealand,Romania,104,RO,45.943161,24.96676,186
814,201502,Overseas visitor,Departure,Russia,New Zealand,Russia,624,RU,61.52401,105.318756,188
815,201502,Overseas visitor,Departure,Samoa,New Zealand,Samoa,1170,WS,-13.759029,-172.104629,239
816,201502,Overseas visitor,Departure,Samoa,New Zealand,"Samoa, American",156,WS,-13.759029,-172.104629,239
817,201502,Overseas visitor,Departure,Saudi Arabia,New Zealand,Saudi Arabia,156,SA,23.885942,45.079162,190
818,201502,Overseas visitor,Departure,Singapore,New Zealand,Singapore,3302,SG,1.352083,103.819836,195
819,201502,Overseas visitor,Departure,Slovakia,New Zealand,Slovakia,182,SK,48.669026,19.699024,199
820,201502,Overseas visitor,Departure,Slovenia,New Zealand,Slovenia,26,SI,46.151241,14.995463,197
821,201502,Overseas visitor,Departure,Solomon Islands,New Zealand,Solomon Islands,26,SB,-9.64571,160.156194,191
822,201502,Overseas visitor,Departure,South Africa,New Zealand,South Africa,1430,ZA,-30.559482,22.937506,243
823,201502,Overseas visitor,Departure,Spain,New Zealand,Spain,728,ES,40.463667,-3.74922,65
824,201502,Overseas visitor,Departure,Sri Lanka,New Zealand,Sri Lanka,208,LK,7.873054,80.771797,128
825,201502,Overseas visitor,Departure,St Kitts and Nevis,New Zealand,St Kitts and Nevis,26,KN,17.357822,-62.782998,118
826,201502,Overseas visitor,Departure,St Lucia,New Zealand,St Lucia,26,LC,13.909444,-60.978893,126
827,201502,Overseas visitor,Departure,Sudan,New Zealand,Sudan,26,SD,12.862807,30.217636,193
828,201502,Overseas visitor,Departure,Sweden,New Zealand,Sweden,2522,SE,60.128161,18.643501,194
829,201502,Overseas visitor,Departure,Switzerland,New Zealand,Switzerland,2964,CH,46.818188,8.227512,41
830,201502,Overseas visitor,Departure,Syria,New Zealand,Syria,26,SY,34.802075,38.996815,207
831,201502,Overseas visitor,Departure,Taiwan,New Zealand,Taiwan,5642,TW,23.69781,120.960515,223
832,201502,Overseas visitor,Departure,Thailand,New Zealand,Thailand,702,TH,15.870032,100.992541,213
833,201502,Overseas visitor,Departure,Tokelau,New Zealand,Tokelau,104,TK,-8.967363,-171.855881,215
834,201502,Overseas visitor,Departure,Tonga,New Zealand,Tonga,1378,TO,-21.178986,-175.198242,219
835,201502,Overseas visitor,Departure,Trinidad and Tobago,New Zealand,Trinidad and Tobago,78,TT,10.691803,-61.222503,221
836,201502,Overseas visitor,Departure,Turkey,New Zealand,Turkey,130,TR,38.963745,35.243322,220
837,201502,Overseas visitor,Departure,Turks and Caicos Islands,New Zealand,Turks and Caicos Islands,26,TC,21.694025,-71.797928,209
838,201502,Overseas visitor,Departure,Tuvalu,New Zealand,Tuvalu,78,TV,-7.109535,177.64933,222
839,201502,Overseas visitor,Departure,Uganda,New Zealand,Uganda,26,UG,1.373333,32.290275,226
840,201502,Overseas visitor,Departure,Ukraine,New Zealand,Ukraine,26,UA,48.379433,31.16558,225
841,201502,Overseas visitor,Departure,United Arab Emirates,New Zealand,United Arab Emirates,624,AE,23.424076,53.847818,2
842,201502,Overseas visitor,Departure,United Kingdom,New Zealand,United Kingdom,31642,GB,55.378051,-3.435973,74
843,201502,Overseas visitor,Departure,United States,New Zealand,United States,29848,US,37.09024,-95.712891,228
844,201502,Overseas visitor,Departure,Uruguay,New Zealand,Uruguay,104,UY,-32.522779,-55.765835,229
845,201502,Overseas visitor,Departure,Vanuatu,New Zealand,Vanuatu,286,VU,-15.376706,166.959158,237
846,201502,Overseas visitor,Departure,Venezuela,New Zealand,Venezuela,26,VE,6.42375,-66.58973,233
847,201502,Overseas visitor,Departure,Viet Nam,New Zealand,Viet Nam,364,VN,14.058324,108.277199,236
848,201502,Overseas visitor,Departure,Wallis and Futuna,New Zealand,Wallis and Futuna,26,WF,-13.768752,-177.156097,238
849,201502,Overseas visitor,Departure,Zimbabwe,New Zealand,Zimbabwe,182,ZW,-19.015438,29.154857,245
850,201502,NZ resident,Departure,Afghanistan,New Zealand,Afghanistan,40,AF,33.93911,67.709953,3
851,201502,NZ resident,Departure,Antarctica,New Zealand,Antarctica,20,AQ,-75.250973,-0.071389,10
852,201502,NZ resident,Departure,Argentina,New Zealand,Argentina,300,AR,-38.416097,-63.616672,11
853,201502,NZ resident,Departure,Australia,New Zealand,Australia,70480,AU,-25.274398,133.775136,14
854,201502,NZ resident,Departure,Austria,New Zealand,Austria,60,AT,47.516231,14.550072,13
855,201502,NZ resident,Departure,Bahamas,New Zealand,Bahamas,20,BS,25.03428,-77.39628,30
856,201502,NZ resident,Departure,Bangladesh,New Zealand,Bangladesh,20,BD,23.684994,90.356331,19
857,201502,NZ resident,Departure,Belgium,New Zealand,Belgium,60,BE,50.503887,4.469936,20
858,201502,NZ resident,Departure,Bhutan,New Zealand,Bhutan,20,BT,27.514162,90.433601,31
859,201502,NZ resident,Departure,Brazil,New Zealand,Brazil,180,BR,-14.235004,-51.92528,29
860,201502,NZ resident,Departure,Brunei Darussalam,New Zealand,Brunei Darussalam,20,BN,4.535277,114.727669,27
861,201502,NZ resident,Departure,Cambodia,New Zealand,Cambodia,360,KH,12.565679,104.990963,115
862,201502,NZ resident,Departure,Canada,New Zealand,Canada,1200,CA,56.130366,-106.346771,36
863,201502,NZ resident,Departure,Chile,New Zealand,Chile,180,CL,-35.675147,-71.542969,44
864,201502,NZ resident,Departure,China,New Zealand,China,5100,CN,35.86166,104.195397,46
865,201502,NZ resident,Departure,Colombia,New Zealand,Colombia,20,CO,4.570868,-74.297333,47
866,201502,NZ resident,Departure,Cook Islands,New Zealand,Cook Islands,2940,CK,-21.236736,-159.777671,43
867,201502,NZ resident,Departure,Cuba,New Zealand,Cuba,20,CU,21.521757,-77.781167,49
868,201502,NZ resident,Departure,Czech Republic,New Zealand,Czech Republic,20,CZ,49.817492,15.472962,53
869,201502,NZ resident,Departure,Ecuador,New Zealand,Ecuador,20,EC,-1.831239,-78.183406,60
870,201502,NZ resident,Departure,Egypt,New Zealand,Egypt,60,EG,26.820553,30.802498,62
871,201502,NZ resident,Departure,Equatorial Guinea,New Zealand,Equatorial Guinea,20,GQ,1.650801,10.267895,85
872,201502,NZ resident,Departure,Ethiopia,New Zealand,Ethiopia,20,ET,9.145,40.489673,66
873,201502,NZ resident,Departure,Fiji,New Zealand,Fiji,4600,FJ,-16.578193,179.414413,68
874,201502,NZ resident,Departure,France,New Zealand,France,200,FR,46.227638,2.213749,72
875,201502,NZ resident,Departure,French Polynesia,New Zealand,French Polynesia,300,PF,-17.679742,-149.406843,172
876,201502,NZ resident,Departure,Germany,New Zealand,Germany,460,DE,51.165691,10.451526,54
877,201502,NZ resident,Departure,Ghana,New Zealand,Ghana,40,GH,7.946527,-1.023194,79
878,201502,NZ resident,Departure,Greece,New Zealand,Greece,20,GR,39.074208,21.824312,86
879,201502,NZ resident,Departure,Guam,New Zealand,Guam,40,GU,13.444304,144.793731,89
880,201502,NZ resident,Departure,Hong Kong,New Zealand,Hong Kong,920,HK,22.396428,114.109497,93
881,201502,NZ resident,Departure,Hungary,New Zealand,Hungary,20,HU,47.162494,19.503304,98
882,201502,NZ resident,Departure,India,New Zealand,India,3680,IN,20.593684,78.96288,103
883,201502,NZ resident,Departure,Indonesia,New Zealand,Indonesia,1540,ID,-0.789275,113.921327,99
884,201502,NZ resident,Departure,Iran,New Zealand,Iran,20,IR,32.427908,53.688046,106
885,201502,NZ resident,Departure,Iraq,New Zealand,Iraq,40,IQ,33.223191,43.679291,105
886,201502,NZ resident,Departure,Ireland,New Zealand,Ireland,280,IE,53.41291,-8.24389,100
887,201502,NZ resident,Departure,Israel,New Zealand,Israel,120,IL,31.046051,34.851612,101
888,201502,NZ resident,Departure,Italy,New Zealand,Italy,200,IT,41.87194,12.56738,108
889,201502,NZ resident,Departure,Japan,New Zealand,Japan,1680,JP,36.204824,138.252924,112
890,201502,NZ resident,Departure,Kenya,New Zealand,Kenya,40,KE,-0.023559,37.906193,113
891,201502,NZ resident,Departure,Kiribati,New Zealand,Kiribati,60,KI,-3.370417,-168.734039,116
892,201502,NZ resident,Departure,"Korea, Republic of",New Zealand,"Korea, Republic of",560,KP,40.339852,127.510093,119
893,201502,NZ resident,Departure,Kuwait,New Zealand,Kuwait,40,KW,29.31166,47.481766,121
894,201502,NZ resident,Departure,Laos,New Zealand,Laos,80,LA,19.85627,102.495496,124
895,201502,NZ resident,Departure,Luxembourg,New Zealand,Luxembourg,20,LU,49.815273,6.129583,132
896,201502,NZ resident,Departure,Madagascar,New Zealand,Madagascar,20,MG,-18.766947,46.869107,139
897,201502,NZ resident,Departure,Malawi,New Zealand,Malawi,20,MW,-13.254308,34.301525,153
898,201502,NZ resident,Departure,Malaysia,New Zealand,Malaysia,1860,MY,4.210484,101.975766,155
899,201502,NZ resident,Departure,Maldives,New Zealand,Maldives,20,MV,3.202778,73.22068,152
900,201502,NZ resident,Departure,Mali,New Zealand,Mali,20,ML,17.570692,-3.996166,142
901,201502,NZ resident,Departure,Malta,New Zealand,Malta,20,MT,35.937496,14.375416,150
902,201502,NZ resident,Departure,Mexico,New Zealand,Mexico,160,MX,23.634501,-102.552784,154
903,201502,NZ resident,Departure,"Micronesia, Federated States of",New Zealand,"Micronesia, Federated States of",20,FM,7.425554,150.550812,70
904,201502,NZ resident,Departure,Morocco,New Zealand,Morocco,20,MA,31.791702,-7.09262,135
905,201502,NZ resident,Departure,Myanmar,New Zealand,Myanmar,80,MM,21.913965,95.956223,143
906,201502,NZ resident,Departure,Namibia,New Zealand,Namibia,20,,-22.95764,18.49041,157
907,201502,NZ resident,Departure,Nauru,New Zealand,Nauru,20,NR,-0.522778,166.931503,166
908,201502,NZ resident,Departure,Nepal,New Zealand,Nepal,40,NP,28.394857,84.124008,165
909,201502,NZ resident,Departure,Netherlands,New Zealand,Netherlands,140,NL,52.132633,5.291266,163
910,201502,NZ resident,Departure,New Caledonia,New Zealand,New Caledonia,280,NC,-20.904305,165.618042,158
911,201502,NZ resident,Departure,Nicaragua,New Zealand,Nicaragua,20,NI,12.865416,-85.207229,162
912,201502,NZ resident,Departure,Niue,New Zealand,Niue,260,NU,-19.054445,-169.867233,167
913,201502,NZ resident,Departure,Norfolk Island,New Zealand,Norfolk Island,340,NF,-29.040835,167.954712,160
914,201502,NZ resident,Departure,Norway,New Zealand,Norway,80,NO,60.472024,8.468946,164
915,201502,NZ resident,Departure,Not Stated,New Zealand,Not Stated,2360,,,,
916,201502,NZ resident,Departure,Pakistan,New Zealand,Pakistan,120,PK,30.375321,69.345116,175
917,201502,NZ resident,Departure,Palau,New Zealand,Palau,20,PW,7.51498,134.58252,182
918,201502,NZ resident,Departure,Papua New Guinea,New Zealand,Papua New Guinea,380,PG,-6.314993,143.95555,173
919,201502,NZ resident,Departure,Peru,New Zealand,Peru,80,PE,-9.189967,-75.015152,171
920,201502,NZ resident,Departure,Philippines,New Zealand,Philippines,1320,PH,12.879721,121.774017,174
921,201502,NZ resident,Departure,Portugal,New Zealand,Portugal,20,PT,39.399872,-8.224454,181
922,201502,NZ resident,Departure,Qatar,New Zealand,Qatar,60,QA,25.354826,51.183884,184
923,201502,NZ resident,Departure,Russia,New Zealand,Russia,160,RU,61.52401,105.318756,188
924,201502,NZ resident,Departure,Samoa,New Zealand,Samoa,2280,WS,-13.759029,-172.104629,239
925,201502,NZ resident,Departure,Saudi Arabia,New Zealand,Saudi Arabia,60,SA,23.885942,45.079162,190
926,201502,NZ resident,Departure,Singapore,New Zealand,Singapore,1060,SG,1.352083,103.819836,195
927,201502,NZ resident,Departure,Solomon Islands,New Zealand,Solomon Islands,60,SB,-9.64571,160.156194,191
928,201502,NZ resident,Departure,South Africa,New Zealand,South Africa,680,ZA,-30.559482,22.937506,243
929,201502,NZ resident,Departure,South Sudan,New Zealand,South Sudan,20,,8,30,248
930,201502,NZ resident,Departure,Spain,New Zealand,Spain,180,ES,40.463667,-3.74922,65
931,201502,NZ resident,Departure,Sri Lanka,New Zealand,Sri Lanka,300,LK,7.873054,80.771797,128
932,201502,NZ resident,Departure,Swaziland,New Zealand,Swaziland,20,SZ,-26.522503,31.465866,208
933,201502,NZ resident,Departure,Sweden,New Zealand,Sweden,60,SE,60.128161,18.643501,194
934,201502,NZ resident,Departure,Switzerland,New Zealand,Switzerland,180,CH,46.818188,8.227512,41
935,201502,NZ resident,Departure,Taiwan,New Zealand,Taiwan,780,TW,23.69781,120.960515,223
936,201502,NZ resident,Departure,Thailand,New Zealand,Thailand,2360,TH,15.870032,100.992541,213
937,201502,NZ resident,Departure,Timor-Leste,New Zealand,Timor-Leste,20,TL,-8.874217,125.727539,216
938,201502,NZ resident,Departure,Tokelau,New Zealand,Tokelau,40,TK,-8.967363,-171.855881,215
939,201502,NZ resident,Departure,Tonga,New Zealand,Tonga,1120,TO,-21.178986,-175.198242,219
940,201502,NZ resident,Departure,Turkey,New Zealand,Turkey,40,TR,38.963745,35.243322,220
941,201502,NZ resident,Departure,Tuvalu,New Zealand,Tuvalu,40,TV,-7.109535,177.64933,222
942,201502,NZ resident,Departure,United Arab Emirates,New Zealand,United Arab Emirates,340,AE,23.424076,53.847818,2
943,201502,NZ resident,Departure,United Kingdom,New Zealand,United Kingdom,1840,GB,55.378051,-3.435973,74
944,201502,NZ resident,Departure,United States,New Zealand,United States,7480,US,37.09024,-95.712891,228
945,201502,NZ resident,Departure,Uruguay,New Zealand,Uruguay,40,UY,-32.522779,-55.765835,229
946,201502,NZ resident,Departure,Vanuatu,New Zealand,Vanuatu,300,VU,-15.376706,166.959158,237
947,201502,NZ resident,Departure,Venezuela,New Zealand,Venezuela,20,VE,6.42375,-66.58973,233
948,201502,NZ resident,Departure,Viet Nam,New Zealand,Viet Nam,640,VN,14.058324,108.277199,236
949,201502,NZ resident,Departure,Zimbabwe,New Zealand,Zimbabwe,40,ZW,-19.015438,29.154857,245
950,201502,PLT,Arrival,Afghanistan,Afghanistan,New Zealand,3,AF,33.93911,67.709953,3
951,201502,PLT,Arrival,Albania,Albania,New Zealand,1,AL,41.153332,20.168331,6
952,201502,PLT,Arrival,Argentina,Argentina,New Zealand,63,AR,-38.416097,-63.616672,11
953,201502,PLT,Arrival,Armenia,Armenia,New Zealand,1,AM,40.069099,45.038189,7
954,201502,PLT,Arrival,Australia,Australia,New Zealand,2074,AU,-25.274398,133.775136,14
955,201502,PLT,Arrival,Austria,Austria,New Zealand,11,AT,47.516231,14.550072,13
956,201502,PLT,Arrival,Azerbaijan,Azerbaijan,New Zealand,1,AZ,40.143105,47.576927,16
957,201502,PLT,Arrival,Bahamas,Bahamas,New Zealand,1,BS,25.03428,-77.39628,30
958,201502,PLT,Arrival,Bahrain,Bahrain,New Zealand,8,BH,25.930414,50.637772,23
959,201502,PLT,Arrival,Bangladesh,Bangladesh,New Zealand,39,BD,23.684994,90.356331,19
960,201502,PLT,Arrival,Barbados,Barbados,New Zealand,1,BB,13.193887,-59.543198,18
961,201502,PLT,Arrival,Belgium,Belgium,New Zealand,19,BE,50.503887,4.469936,20
962,201502,PLT,Arrival,Belize,Belize,New Zealand,5,BZ,17.189877,-88.49765,35
963,201502,PLT,Arrival,Bosnia and Herzegovina,Bosnia and Herzegovina,New Zealand,1,BA,43.915886,17.679076,17
964,201502,PLT,Arrival,Botswana,Botswana,New Zealand,5,BW,-22.328474,24.684866,33
965,201502,PLT,Arrival,Brazil,Brazil,New Zealand,71,BR,-14.235004,-51.92528,29
966,201502,PLT,Arrival,Brunei Darussalam,Brunei Darussalam,New Zealand,21,BN,4.535277,114.727669,27
967,201502,PLT,Arrival,Bulgaria,Bulgaria,New Zealand,4,BG,42.733883,25.48583,22
968,201502,PLT,Arrival,Cambodia,Cambodia,New Zealand,33,KH,12.565679,104.990963,115
969,201502,PLT,Arrival,Cameroon,Cameroon,New Zealand,1,CM,7.369722,12.354722,45
970,201502,PLT,Arrival,Canada,Canada,New Zealand,154,CA,56.130366,-106.346771,36
971,201502,PLT,Arrival,Chile,Chile,New Zealand,58,CL,-35.675147,-71.542969,44
972,201502,PLT,Arrival,China,China,New Zealand,1265,CN,35.86166,104.195397,46
973,201502,PLT,Arrival,Colombia,Colombia,New Zealand,15,CO,4.570868,-74.297333,47
974,201502,PLT,Arrival,Cook Islands,Cook Islands,New Zealand,39,CK,-21.236736,-159.777671,43
975,201502,PLT,Arrival,Costa Rica,Costa Rica,New Zealand,1,CR,9.748917,-83.753428,48
976,201502,PLT,Arrival,Croatia,Croatia,New Zealand,2,HR,45.1,15.2,96
977,201502,PLT,Arrival,Curacao,Curacao,New Zealand,5,CRC,12.11,-69,246
978,201502,PLT,Arrival,Cyprus,Cyprus,New Zealand,3,CY,35.126413,33.429859,52
979,201502,PLT,Arrival,Czech Republic,Czech Republic,New Zealand,58,CZ,49.817492,15.472962,53
980,201502,PLT,Arrival,Denmark,Denmark,New Zealand,9,DK,56.26392,9.501785,56
981,201502,PLT,Arrival,Ecuador,Ecuador,New Zealand,1,EC,-1.831239,-78.183406,60
982,201502,PLT,Arrival,Egypt,Egypt,New Zealand,7,EG,26.820553,30.802498,62
983,201502,PLT,Arrival,Estonia,Estonia,New Zealand,3,EE,58.595272,25.013607,61
984,201502,PLT,Arrival,Ethiopia,Ethiopia,New Zealand,8,ET,9.145,40.489673,66
985,201502,PLT,Arrival,Faeroe Islands,Faeroe Islands,New Zealand,1,FO,61.892635,-6.911806,71
986,201502,PLT,Arrival,Falkland Islands,Falkland Islands,New Zealand,2,FK,-51.796253,-59.523613,69
987,201502,PLT,Arrival,Fiji,Fiji,New Zealand,171,FJ,-16.578193,179.414413,68
988,201502,PLT,Arrival,Finland,Finland,New Zealand,8,FI,61.92411,25.748151,67
989,201502,PLT,Arrival,Former Yugoslav Republic of Macedonia (FYROM),Former Yugoslav Republic of Macedonia (FYROM),New Zealand,2,,,,
990,201502,PLT,Arrival,France,France,New Zealand,252,FR,46.227638,2.213749,72
991,201502,PLT,Arrival,French Polynesia,French Polynesia,New Zealand,1,PF,-17.679742,-149.406843,172
992,201502,PLT,Arrival,Germany,Germany,New Zealand,249,DE,51.165691,10.451526,54
993,201502,PLT,Arrival,Ghana,Ghana,New Zealand,2,GH,7.946527,-1.023194,79
994,201502,PLT,Arrival,Greece,Greece,New Zealand,1,GR,39.074208,21.824312,86
995,201502,PLT,Arrival,Guatemala,Guatemala,New Zealand,1,GT,15.783471,-90.230759,88
996,201502,PLT,Arrival,Guyana,Guyana,New Zealand,3,GY,4.860416,-58.93018,91
997,201502,PLT,Arrival,Hong Kong,Hong Kong,New Zealand,104,HK,22.396428,114.109497,93
998,201502,PLT,Arrival,Hungary,Hungary,New Zealand,5,HU,47.162494,19.503304,98
999,201502,PLT,Arrival,Iceland,Iceland,New Zealand,2,IS,64.963051,-19.020835,107
1000,201502,PLT,Arrival,India,India,New Zealand,2260,IN,20.593684,78.96288,103
1001,201502,PLT,Arrival,Indonesia,Indonesia,New Zealand,94,ID,-0.789275,113.921327,99
1002,201502,PLT,Arrival,Iran,Iran,New Zealand,30,IR,32.427908,53.688046,106
1003,201502,PLT,Arrival,Iraq,Iraq,New Zealand,2,IQ,33.223191,43.679291,105
1004,201502,PLT,Arrival,Ireland,Ireland,New Zealand,112,IE,53.41291,-8.24389,100
1005,201502,PLT,Arrival,Israel,Israel,New Zealand,19,IL,31.046051,34.851612,101
1006,201502,PLT,Arrival,Italy,Italy,New Zealand,58,IT,41.87194,12.56738,108
1007,201502,PLT,Arrival,Jamaica,Jamaica,New Zealand,2,JM,18.109581,-77.297508,110
1008,201502,PLT,Arrival,Japan,Japan,New Zealand,186,JP,36.204824,138.252924,112
1009,201502,PLT,Arrival,Jordan,Jordan,New Zealand,4,JO,30.585164,36.238414,111
1010,201502,PLT,Arrival,Kazakhstan,Kazakhstan,New Zealand,5,KZ,48.019573,66.923684,123
1011,201502,PLT,Arrival,Kenya,Kenya,New Zealand,23,KE,-0.023559,37.906193,113
1012,201502,PLT,Arrival,Kiribati,Kiribati,New Zealand,9,KI,-3.370417,-168.734039,116
1013,201502,PLT,Arrival,"Korea, Republic of","Korea, Republic of",New Zealand,177,KP,40.339852,127.510093,119
1014,201502,PLT,Arrival,Kuwait,Kuwait,New Zealand,12,KW,29.31166,47.481766,121
1015,201502,PLT,Arrival,Laos,Laos,New Zealand,11,LA,19.85627,102.495496,124
1016,201502,PLT,Arrival,Latvia,Latvia,New Zealand,3,LV,56.879635,24.603189,133
1017,201502,PLT,Arrival,Lebanon,Lebanon,New Zealand,1,LB,33.854721,35.862285,125
1018,201502,PLT,Arrival,Libya,Libya,New Zealand,1,LY,26.3351,17.228331,134
1019,201502,PLT,Arrival,Lithuania,Lithuania,New Zealand,1,LT,55.169438,23.881275,131
1020,201502,PLT,Arrival,Macau,Macau,New Zealand,4,MO,22.198745,113.543873,145
1021,201502,PLT,Arrival,Malawi,Malawi,New Zealand,1,MW,-13.254308,34.301525,153
1022,201502,PLT,Arrival,Malaysia,Malaysia,New Zealand,226,MY,4.210484,101.975766,155
1023,201502,PLT,Arrival,Maldives,Maldives,New Zealand,7,MV,3.202778,73.22068,152
1024,201502,PLT,Arrival,Malta,Malta,New Zealand,3,MT,35.937496,14.375416,150
1025,201502,PLT,Arrival,Marshall Islands,Marshall Islands,New Zealand,2,MH,7.131474,171.184478,140
1026,201502,PLT,Arrival,Mauritius,Mauritius,New Zealand,1,MU,-20.348404,57.552152,151
1027,201502,PLT,Arrival,Mexico,Mexico,New Zealand,27,MX,23.634501,-102.552784,154
1028,201502,PLT,Arrival,Mongolia,Mongolia,New Zealand,2,MN,46.862496,103.846656,144
1029,201502,PLT,Arrival,Morocco,Morocco,New Zealand,1,MA,31.791702,-7.09262,135
1030,201502,PLT,Arrival,Mozambique,Mozambique,New Zealand,1,MZ,-18.665695,35.529562,156
1031,201502,PLT,Arrival,Myanmar,Myanmar,New Zealand,13,MM,21.913965,95.956223,143
1032,201502,PLT,Arrival,Namibia,Namibia,New Zealand,2,,-22.95764,18.49041,157
1033,201502,PLT,Arrival,Nauru,Nauru,New Zealand,2,NR,-0.522778,166.931503,166
1034,201502,PLT,Arrival,Nepal,Nepal,New Zealand,42,NP,28.394857,84.124008,165
1035,201502,PLT,Arrival,Netherlands,Netherlands,New Zealand,54,NL,52.132633,5.291266,163
1036,201502,PLT,Arrival,New Caledonia,New Caledonia,New Zealand,23,NC,-20.904305,165.618042,158
1037,201502,PLT,Arrival,Nigeria,Nigeria,New Zealand,12,NG,9.081999,8.675277,161
1038,201502,PLT,Arrival,Niue,Niue,New Zealand,8,NU,-19.054445,-169.867233,167
1039,201502,PLT,Arrival,Norway,Norway,New Zealand,7,NO,60.472024,8.468946,164
1040,201502,PLT,Arrival,Not Stated,Not Stated,New Zealand,351,,,,
1041,201502,PLT,Arrival,Oman,Oman,New Zealand,12,OM,21.512583,55.923255,169
1042,201502,PLT,Arrival,Pakistan,Pakistan,New Zealand,45,PK,30.375321,69.345116,175
1043,201502,PLT,Arrival,Panama,Panama,New Zealand,1,PA,8.537981,-80.782127,170
1044,201502,PLT,Arrival,Papua New Guinea,Papua New Guinea,New Zealand,39,PG,-6.314993,143.95555,173
1045,201502,PLT,Arrival,Paraguay,Paraguay,New Zealand,1,PY,-23.442503,-58.443832,183
1046,201502,PLT,Arrival,Peru,Peru,New Zealand,7,PE,-9.189967,-75.015152,171
1047,201502,PLT,Arrival,Philippines,Philippines,New Zealand,375,PH,12.879721,121.774017,174
1048,201502,PLT,Arrival,Poland,Poland,New Zealand,12,PL,51.919438,19.145136,176
1049,201502,PLT,Arrival,Portugal,Portugal,New Zealand,4,PT,39.399872,-8.224454,181
1050,201502,PLT,Arrival,Qatar,Qatar,New Zealand,8,QA,25.354826,51.183884,184
1051,201502,PLT,Arrival,Reunion,Reunion,New Zealand,1,RE,-21.115141,55.536384,185
1052,201502,PLT,Arrival,Romania,Romania,New Zealand,2,RO,45.943161,24.96676,186
1053,201502,PLT,Arrival,Russia,Russia,New Zealand,67,RU,61.52401,105.318756,188
1054,201502,PLT,Arrival,Samoa,Samoa,New Zealand,305,WS,-13.759029,-172.104629,239
1055,201502,PLT,Arrival,Samoa,"Samoa, American",New Zealand,3,WS,-13.759029,-172.104629,239
1056,201502,PLT,Arrival,Saudi Arabia,Saudi Arabia,New Zealand,54,SA,23.885942,45.079162,190
1057,201502,PLT,Arrival,Senegal,Senegal,New Zealand,1,SN,14.497401,-14.452362,202
1058,201502,PLT,Arrival,Serbia,Serbia,New Zealand,1,RS,44.016521,21.005859,187
1059,201502,PLT,Arrival,Singapore,Singapore,New Zealand,159,SG,1.352083,103.819836,195
1060,201502,PLT,Arrival,Slovakia,Slovakia,New Zealand,9,SK,48.669026,19.699024,199
1061,201502,PLT,Arrival,Slovenia,Slovenia,New Zealand,3,SI,46.151241,14.995463,197
1062,201502,PLT,Arrival,Solomon Islands,Solomon Islands,New Zealand,10,SB,-9.64571,160.156194,191
1063,201502,PLT,Arrival,Somalia,Somalia,New Zealand,1,SO,5.152149,46.199616,203
1064,201502,PLT,Arrival,South Africa,South Africa,New Zealand,173,ZA,-30.559482,22.937506,243
1065,201502,PLT,Arrival,South Sudan,South Sudan,New Zealand,1,,8,30,248
1066,201502,PLT,Arrival,Spain,Spain,New Zealand,20,ES,40.463667,-3.74922,65
1067,201502,PLT,Arrival,Sri Lanka,Sri Lanka,New Zealand,94,LK,7.873054,80.771797,128
